     2.10           OBSERVATION DATA    M (MIXED)           RINEX VERSION / TYPE
LoggerServer.exe    NIST                31-Aug-20 23:59     PGM / RUN BY / DATE
The reference is antenna ARP only, mounted on a forced      COMMENT
centering threaded rod that is bolted to a metal tower.     COMMENT
The tower sits on the roof of NIST Building 1.              COMMENT
Signal Strengh values S1,S2 are in dBHz                     COMMENT
NIST                                                        MARKER NAME
49507M002                                                   MARKER NUMBER
NIST                NIST                                    OBSERVER / AGENCY
SWU04029169         NOV OEM4-G2         2.200-L1L2W         REC # / TYPE / VERS
04230007            NOV702          NONE                    ANT # / TYPE
 -1288349.1490 -4721661.0480  4078676.0170                  APPROX POSITION XYZ
        0.0000        0.0000        0.0000                  ANTENNA: DELTA H/E/N
     1     1                                                WAVELENGTH FACT L1/2
     8    C1    L1    D1    S1    P2    L2    D2    S2      # / TYPES OF OBSERV
  2020     9     1     0     0    0.0000000     GPS         TIME OF FIRST OBS
                                                            END OF HEADER
 20  9  1  0  0  0.0000000  0 10G 1G10G11G12G20G21G22G25G31G32
  22694610.30746 119260989.85946      2407.71546        42.620    22694613.29345
  92930656.64545      1876.13745        39.102
  21476075.07549 112857559.05749     -1715.05949        48.843    21476077.44547
  87940986.36547     -1336.41447        43.568
  22247627.99948 116912078.03148      -405.83648        45.649    22247627.36943
  91100324.25443      -316.23843        36.327
  24727353.87944 129943121.64744      1211.28544        38.685    24727354.30848
 101254379.76248       943.85548        46.569
  23683433.98246 124457308.29046     -3137.37146        41.742    23683433.93943
  96979715.98343     -2444.70743        35.239
  21599152.55249 113504322.96549     -1685.66049        48.067    21599151.23446
  88444944.82646     -1313.50446        41.404
  24191854.04746 127129064.43146      2951.37946        41.634    24191851.76343
  99061609.25543      2299.77343        35.302
  24367817.63845 128053750.19545      2299.10945        38.981    24367821.68941
  99782156.14441      1791.51241        25.676
  21645066.58449 113745656.64649      3039.22349        48.102    21645065.69646
  88633002.00446      2368.22346        41.389
  20387842.53349 107138916.25349      -631.91049        50.764    20387844.79448
  83484886.79048      -492.40248        45.953
 20  9  1  0  0 30.0000000  0 10G 1G10G11G12G20G21G22G25G31G32
  22680909.27046 119188992.06246      2392.71146        43.137    22680912.34944
  92874554.48444      1864.44544        36.808
  21485896.29349 112909169.28849     -1725.70749        48.996    21485898.46647
  87981202.13147     -1344.71147        43.554
  22250001.94547 116924553.65147      -426.00447        44.822    22250001.57344
  91110045.51044      -331.95344        37.109
  24720482.35745 129907011.36745      1195.55545        39.676    24720482.68148
 101226241.91748       931.59848        45.924
  23701361.41045 124551516.24345     -3143.09445        39.105    23701361.32042
  97053124.73342     -2449.17242        33.644
  21608816.81449 113555109.33749     -1700.04349        48.106    21608815.63746
  88484518.60046     -1324.71146        41.143
  24175008.04346 127040537.35346      2950.52746        42.195    24175006.05743
  98992627.14943      2299.10943        35.640
  24354723.06044 127984926.62544      2288.63744        38.486    24354724.49344
  99728531.72644      1783.35244        38.875
  21627753.32448 113654673.34948      3026.30148        47.630    21627752.50446
  88562105.96846      2358.15246        41.758
  20391478.34049 107158022.87249      -641.88749        50.734    20391480.63348
  83499775.06948      -500.17648        45.885
 20  9  1  0  1  0.0000000  0 10G 1G10G11G12G20G21G22G25G31G32
  22667295.19846 119117450.40646      2377.19546        43.155    22667298.30946
  92818807.74946      1852.35546        41.335
  21495779.01149 112961102.78749     -1736.55949        48.869    21495780.92446
  88021669.79446     -1353.16446        43.164
  22252491.35147 116937637.61247      -446.26647        44.683    22252491.30044
  91120240.80644      -347.74244        36.762
  24713700.27245 129871369.17345      1180.13345        41.094    24713700.34848
 101198468.84048       919.62948        45.626
  23719322.34045 124645902.68545     -3149.20345        40.309    23719322.69141
  97126672.54641     -2453.92641        31.320
  21618562.58049 113606323.37749     -1714.31249        48.040    21618561.47745
  88524425.62945     -1335.83245        40.989
  24158168.79046 126952047.17746      2949.04346        42.372    24158167.34444
  98923673.81544      2297.95344        36.775
  24341682.78544 127916395.45844      2279.53544        38.829    24341684.80245
  99675130.77045      1776.25845        39.661
  21610514.69348 113564083.84848      3013.06248        47.668    21610514.13046
  88491516.79946      2347.83646        42.099
  20395171.12749 107177429.31749      -651.87549        50.721    20395173.43948
  83514896.97348      -507.95748        45.888
 20  9  1  0  1 30.0000000  0 10G 1G10G11G12G20G21G22G25G31G32
  22653768.95247 119046367.33447      2362.07447        44.403    22653771.85944
  92763418.35244      1840.57444        37.636
  21505723.05049 113013359.56449     -1747.21949        48.559    21505725.10447
  88062389.34847     -1361.47347        43.533
  22255096.55447 116951329.17147      -466.41047        44.428    22255096.52644
  91130909.55744      -363.44144        37.267
  24707007.42445 129836196.83245      1164.45345        41.078    24707007.43947
 101171061.82247       907.36347        44.594
  23737317.34145 124740466.57245     -3154.95745        41.082    23737317.44842
  97200358.65142     -2458.41042        32.291
  21628389.49249 113657963.96649     -1728.44549        48.159    21628388.12946
  88564665.03846     -1346.84446        41.343
  24141337.07146 126863595.21746      2947.80146        41.928    24141335.35343
  98854750.24643      2296.98443        35.978
  24328695.08445 127848147.71245      2270.22745        39.306    24328698.75048
  99621950.78748      1769.00448        47.723
  21593351.42749 113473890.83249      2999.73849        47.851    21593350.68346
  88421236.56646      2337.45746        41.246
  20398920.86749 107197134.55949      -661.79749        50.637    20398923.16548
  83530251.70848      -515.68848        45.861
 20  9  1  0  2  0.0000000  0 10G 1G10G11G12G20G21G22G25G31G32
  22640330.47247 118975745.35547      2346.38747        44.623    22640333.15045
  92708388.24045      1828.35245        39.525
  21515728.81649 113065939.54449     -1757.99649        48.826    21515730.92747
  88103360.75647     -1369.87147        43.902
  22257817.36347 116965627.15847      -486.73447        44.899    22257817.45443
  91142050.84143      -379.27743        36.012
  24700404.05145 129801496.75145      1148.77745        39.905    24700403.71847
 101144022.79947       895.14847        44.351
  23755346.14146 124835206.94846     -3160.96546        41.829    23755345.76742
  97274182.31642     -2463.09442        33.807
  21638297.36849 113710029.37849     -1742.60549        48.230    21638295.81245
  88605235.48945     -1357.87945        40.933
  24124512.86946 126775182.75046      2946.47346        41.823    24124510.69643
  98785857.41543      2295.94943        34.936
  24315761.96943 127780186.57543      2260.94143        36.600    24315765.73848
  99568994.10848      1761.77348        46.837
  21576264.36249 113384097.14049      2986.37949        48.251    21576263.29046
  88351267.47646      2327.04746        41.831
  20402727.26649 107217137.53749      -671.70349        50.619    20402729.63148
  83545838.44848      -523.41048        46.006
 20  9  1  0  2 30.0000000  0 10G 1G10G11G12G20G21G22G25G31G32
  22626979.91647 118905586.85047      2331.12147        43.789    22626982.40245
  92653719.27345      1816.45345        39.794
  21525795.92849 113118842.74049     -1768.73449        48.708    21525798.30846
  88144584.02446     -1378.23846        43.235
  22260653.48847 116980530.10547      -506.87147        44.837    22260653.66644
  91153663.53544      -394.96944        37.737
  24693890.43845 129767271.10245      1132.81245        38.915    24693890.52146
 101117353.50446       882.70746        43.142
  23773407.70845 124930122.81645     -3166.67245        39.683    23773407.87643
  97348142.70043     -2467.53943        35.318
  21648285.54449 113762517.82049     -1756.66449        48.107    21648283.98545
  88646135.56345     -1368.83245        39.765
  24107696.09346 126686810.84846      2945.12946        43.098    24107693.93143
  98716996.24443      2294.90243        36.405
  24302884.51445 127712515.44245      2250.68845        39.219    24302887.29847
  99516263.36747      1753.77747        44.544
  21559253.55548 113294705.25848      2972.91448        47.719    21559252.76346
  88281611.49146      2316.55546        42.035
  20406590.16849 107237437.24349      -681.66049        50.677    20406592.53848
  83561656.40148      -531.16848        45.891
 20  9  1  0  3  0.0000000  0 10G 1G10G11G12G20G21G22G25G31G32
  22613717.66347 118835894.22347      2315.07847        43.408    22613720.64045
  92599413.36145      1803.95345        39.861
  21535924.61349 113172069.08449     -1779.69949        48.735    21535926.65746
  88186059.10046     -1386.78146        43.082
  22263604.59248 116996037.41248      -527.00848        45.591    22263604.68443
  91165747.13543      -410.66043        35.670
  24687468.42645 129733522.15945      1116.85545        39.237    24687467.96448
 101091055.56048       870.27348        45.869
  23791502.21645 125025213.41445     -3172.36345        39.417    23791503.42843
  97422239.19643     -2471.97343        35.677
  21658353.93849 113815428.43649     -1770.89149        47.891    21658352.75845
  88687364.59845     -1379.91845        40.797
  24090887.72647 126598480.98247      2943.62147        43.546    24090885.00142
  98648167.81542      2293.72742        33.941
  24290063.21444 127645137.29444      2241.26244        38.132    24290065.17448
  99463760.88148      1746.43448        46.196
  21542319.32748 113205717.90148      2959.43448        47.303    21542318.88946
  88212270.73746      2306.05146        41.694
  20410509.37949 107258032.56749      -691.33249        50.807    20410511.70447
  83577704.70447      -538.70347        45.447
 20  9  1  0  3 30.0000000  0 10G 1G10G11G12G20G21G22G25G31G32
  22600544.66547 118766669.91947      2299.54347        43.817    22600547.77144
  92545472.36944      1791.84844        38.596
  21546114.68549 113225618.59249     -1790.50849        48.708    21546116.44047
  88227785.98447     -1395.20347        43.340
  22266670.45047 117012147.71247      -547.12547        45.428    22266670.02643
  91178300.61943      -426.33643        35.675
  24681137.37745 129700251.72645      1101.16445        40.134    24681136.99148
 101065130.56648       858.04748        45.859
  23809630.79546 125120477.26246     -3178.16846        41.525    23809631.85842
  97496470.73342     -2476.49642        34.168
  21668502.37348 113868759.02348     -1784.64848        47.765    21668501.28745
  88728920.89045     -1390.63745        40.592
  24074087.57846 126510194.34646      2942.03946        42.904    24074085.01643
  98579373.05643      2292.49643        34.716
  24277297.84244 127578055.13244      2230.89144        37.988    24277301.18949
  99411489.13649      1738.35549        48.417
  21525463.07148 113117138.01148      2945.85948        47.721    21525462.27546
  88143247.47646      2295.47346        41.741
  20414484.67949 107278922.52349      -701.19149        50.763    20414486.81747
  83593982.59447      -546.38747        45.348
 20  9  1  0  4  0.0000000  0 10G 1G10G11G12G20G21G22G25G31G32
  22587461.01747 118697916.35147      2284.01647        43.350    22587464.52644
  92491898.17744      1779.75044        38.314
  21556366.31949 113279491.14549     -1801.16449        48.722    21556367.97046
  88269764.58846     -1403.50846        43.054
  22269850.92248 117028859.01648      -567.07448        46.013    22269849.74444
  91191322.41044      -441.87944        36.834
  24674897.72545 129667461.72345      1084.86745        38.949    24674897.24848
 101039579.93848       845.23048        45.733
  23827792.15645 125215913.48045     -3184.26245        41.061    23827792.10441
  97570836.66741     -2481.24241        29.747
  21678730.46749 113922508.24349     -1798.66849        47.813    21678729.47245
  88770803.39145     -1401.56245        40.510
  24057295.24346 126421951.82846      2940.61746        42.262    24057293.28043
  98510612.68943      2291.38743        35.544
  24264588.89744 127511272.28944      2221.02744        38.118    24264593.68349
  99359450.63549      1730.66849        48.604
  21508685.34749 113028968.08949      2932.05949        47.982    21508683.57846
  88074543.64546      2284.71946        41.307
  20418515.76949 107300106.02049      -711.10249        50.773    20418517.74147
  83610489.21747      -554.10947        45.478
 20  9  1  0  4 30.0000000  0 10G 1G10G11G12G20G21G22G25G31G32
  22574467.52147 118629635.89547      2267.78547        43.833    22574471.29244
  92438692.64644      1767.10244        37.744
  21566679.59949 113333686.70549     -1811.85249        48.771    21566681.15346
  88311994.89446     -1411.83646        43.110
  22273145.48948 117046170.67648      -586.95348        45.864    22273143.57643
  91204812.02643      -457.37143        35.515
  24668749.36745 129635154.53645      1068.80945        39.104    24668749.15347
 101014405.54447       832.83647        44.833
  23845985.48544 125311521.71744     -3190.12944        37.977    23845985.06642
  97645336.55442     -2485.81642        32.979
  21689037.93049 113976674.76249     -1812.36749        47.839    21689036.96445
  88813011.05145     -1412.23845        40.795
  24040511.69246 126333754.61646      2938.87146        42.674    24040509.63543
  98441887.62143      2290.02743        35.813
  24251938.34044 127444791.96644      2210.28144        38.371    24251942.98149
  99307647.82249      1722.29349        48.711
  21491985.48448 112941210.57048      2918.41448        47.384    21491984.01346
  88006161.20246      2274.08646        41.527
  20422602.53749 107321581.99149      -720.66449        50.782    20422604.40647
  83627223.74747      -561.55947        45.406
 20  9  1  0  5  0.0000000  0 10G 1G10G11G12G20G21G22G25G31G32
  22561564.57147 118561830.94847      2252.12947        44.136    22561568.25245
  92385857.64545      1754.90245        39.058
  21577054.14649 113388205.23549     -1822.77349        48.722    21577055.70846
  88354476.84446     -1420.34846        43.034
  22276553.76747 117064081.37247      -606.97347        45.229    22276552.20543
  91218768.40043      -472.96943        36.193
  24662693.75045 129603332.13245      1052.74645        40.934    24662693.53347
 100989608.87447       820.18047        43.581
  23864211.50346 125407300.16846     -3195.41046        41.169    23864210.95843
  97719969.04043     -2489.93443        34.782
  21699424.66349 114031256.74449     -1826.41849        48.272    21699423.74245
  88855542.45645     -1423.18845        40.518
  24023737.08146 126245604.08046      2937.53946        41.397    24023734.95243
  98373198.90243      2288.98843        34.743
  24239345.86044 127378617.03544      2200.66844        37.928    24239349.49948
  99256082.92748      1714.80548        46.384
  21475364.57649 112853868.36049      2904.49649        48.010    21475363.34146
  87938102.38246      2263.24246        41.768
  20426744.75849 107343349.43249      -730.39849        50.810    20426746.50147
  83644185.39447      -569.14547        45.458
 20  9  1  0  5 30.0000000  0 10G 1G10G11G12G20G21G22G25G31G32
  22548752.84647 118494503.85947      2236.14547        44.135    22548756.08544
  92333394.99544      1742.44544        38.175
  21587489.98649 113443046.60749     -1833.32849        48.613    21587491.52046
  88397210.37246     -1428.57046        43.213
  22280075.65347 117082590.00747      -626.91047        45.072    22280074.74343
  91233190.68843      -488.50443        36.045
  24656730.61445 129571996.16345      1036.25445        39.793    24656730.25147
 100965191.27047       807.46947        44.010
  23882470.32946 125503247.98046     -3201.10246        42.351    23882469.23642
  97794733.52742     -2494.36742        33.822
  21709890.19249 114086252.52449     -1839.97349        48.244    21709889.27345
  88898396.30445     -1433.75045        40.855
  24006971.41845 126157501.37645      2935.78145        40.724    24006969.62443
  98304547.47843      2287.61743        34.716
  24226811.90145 127312750.80945      2190.64545        39.046    24226815.53948
  99204758.63948      1706.99248        46.880
  21458823.73649 112766944.06149      2890.55149        48.557    21458822.20646
  87870369.17646      2252.37546        42.089
  20430942.18649 107365407.29749      -740.09849        50.734    20430943.93247
  83661373.33747      -576.70347        45.237
 20  9  1  0  6  0.0000000  0 10G 1G10G11G12G20G21G22G25G31G32
  22536032.24647 118427657.04747      2220.37147        43.655    22536035.49544
  92281306.58644      1730.15644        38.566
  21597987.49149 113498210.76849     -1844.14849        48.461    21597988.95946
  88440195.42946     -1437.00446        43.178
  22283711.13047 117101695.13047      -646.79347        44.786    22283710.16744
  91248077.79144      -503.99644        37.489
  24650860.47045 129541148.15145      1019.97745        39.240    24650860.02547
 100941153.85447       794.96947        44.973
  23900760.87345 125599364.22845     -3206.85245        40.761    23900759.84941
  97869629.28941     -2498.84841        32.079
  21720434.23149 114141660.89249     -1853.77049        48.149    21720433.09345
  88941571.65245     -1444.50045        40.631
  23990215.03046 126069448.00246      2934.32846        41.572    23990213.84043
  98235934.52543      2286.48843        36.085
  24214337.43245 127247196.38245      2179.98445        40.313    24214341.41048
  99153677.36548      1698.68848        47.110
  21442362.74549 112680440.24949      2876.39549        48.038    21442361.18446
  87802963.63646      2241.34446        41.970
  20435194.67949 107387754.51749      -749.67249        50.759    20435196.28247
  83678786.75947      -584.16447        44.980
 20  9  1  0  6 30.0000000  0 10G 1G10G11G12G20G21G22G25G31G32
  22523403.21147 118361292.82047      2203.80947        43.617    22523406.57144
  92229594.21044      1717.25044        38.730
  21608546.17749 113553697.62549     -1854.89849        48.586    21608548.00346
  88483431.94346     -1445.37946        42.954
  22287459.77347 117121395.40947      -666.47747        45.293    22287458.81344
  91263428.62844      -519.33644        36.720
  24645083.75945 129510791.05345      1003.66445        39.849    24645083.26747
 100917498.99647       782.07447        44.302
  23919082.55844 125695648.36444     -3212.44944        37.055    23919082.28741
  97944655.87241     -2503.21541        31.224
  21731056.14249 114197479.59449     -1867.43449        48.235    21731055.15345
  88985066.73145     -1455.14545        40.277
  23973468.92246 125981445.14946      2932.70746        42.985    23973467.41544
  98167360.91244      2285.22344        37.101
  24201923.01145 127181956.84645      2169.82445        39.613    24201926.36747
  99102841.38247      1690.77047        44.739
  21425981.81848 112594359.48348      2862.28948        47.661    21425980.92146
  87735887.77246      2230.35246        42.295
  20439502.02449 107410390.05549      -759.35249        50.682    20439503.46547
  83696424.83947      -591.70747        45.011
 20  9  1  0  7  0.0000000  0 10G 1G10G11G12G20G21G22G25G31G32
  22510866.73447 118295413.46347      2188.11347        43.337    22510870.08044
  92178259.67144      1705.02044        38.484
  21619166.21549 113609507.09249     -1865.68049        48.399    21619168.44346
  88526919.81846     -1453.78146        42.955
  22291321.47147 117141689.18847      -686.24647        45.020    22291320.54543
  91279241.96443      -534.74243        35.779
  24639400.98445 129480926.70245       987.25845        39.235    24639400.22247
 100894228.10547       769.28947        44.966
  23937436.35845 125792098.82745     -3217.82445        40.329    23937436.36343
  98019812.03543     -2507.39843        35.509
  21741755.98849 114253707.48049     -1881.10249        48.050    21741755.07745
  89028880.64945     -1465.79745        40.629
  23956732.68847 125893493.79647      2930.88347        43.767    23956730.29543
  98098827.39043      2283.80143        34.510
  24189568.33644 127117035.28644      2158.69144        38.868    24189571.44547
  99052253.18047      1682.09447        44.645
  21409681.98949 112508704.45549      2847.98849        47.935    21409681.44446
  87669143.64346      2219.20746        42.626
  20443864.06649 107433312.84049      -768.89549        50.749    20443865.44847
  83714286.74647      -599.14147        44.917
 20  9  1  0  7 30.0000000  0 10G 1G10G11G12G20G21G22G25G31G32
  22498423.14047 118230021.35747      2171.50447        44.710    22498426.37744
  92127304.80644      1692.07844        38.061
  21629847.84949 113665639.04249     -1876.48049        48.279    21629849.89147
  88570658.99747     -1462.19547        43.339
  22295296.13547 117162575.35847      -705.82847        45.340    22295295.24043
  91295516.86343      -550.00043        34.812
  24633811.95845 129451556.79345       970.59045        39.603    24633811.80947
 100871342.46347       756.32447        45.115
  23955822.26546 125888714.46746     -3223.20346        42.654    23955821.61141
  98095096.95341     -2511.59041        32.220
  21752533.31249 114310342.51649     -1894.60949        47.915    21752532.45745
  89073011.84445     -1476.32045        40.905
  23940006.32447 125805595.30547      2929.17247        43.908    23940003.44043
  98030335.06743      2282.46943        34.617
  24177275.10844 127052434.77644      2147.72344        38.806    24177278.26848
  99001915.15548      1673.54748        46.162
  21393463.98049 112423477.72649      2833.66849        48.364    21393463.08746
  87602733.24146      2208.05146        42.387
  20448280.57849 107456521.87149      -778.40649        50.683    20448281.90947
  83732371.70547      -606.55547        45.081
 20  9  1  0  8  0.0000000  0 10G 1G10G11G12G20G21G22G25G31G32
  22486072.74247 118165118.76947      2155.38347        44.789    22486075.68945
  92076731.38245      1679.51645        38.936
  21640590.70649 113722093.35649     -1887.20349        48.305    21640592.84246
  88614649.36746     -1470.55146        43.021
  22299383.14247 117184052.33647      -725.87547        45.125    22299382.39543
  91312252.17343      -565.62143        35.737
  24628317.53545 129422682.92645       954.14845        40.806    24628317.97347
 100848841.36247       743.39847        45.280
  23974239.24045 125985494.37245     -3228.46145        40.195    23974238.37742
  98170509.83242     -2515.68842        34.222
  21763387.63048 114367383.25348     -1908.15648        47.652    21763386.94445
  89117459.15745     -1486.87945        40.848
  23923290.32046 125717751.17046      2927.34446        43.102    23923287.67544
  97961885.10344      2281.04344        36.934
  24165043.99245 126988158.44045      2136.89845        39.815    24165047.23948
  98951829.77848      1665.11748        47.340
  21377327.86949 112338681.94349      2819.25849        48.572    21377327.09446
  87536658.65046      2196.82046        42.370
  20452751.30549 107480016.09749      -787.90249        50.622    20452752.85347
  83750678.89447      -613.95347        45.367
 20  9  1  0  8 30.0000000  0 10G 1G10G11G12G20G21G22G25G31G32
  22473816.12347 118100708.03247      2138.68847        45.057    22473818.93345
  92026541.21445      1666.50845        39.038
  21651394.87849 113778869.91849     -1897.96949        48.359    21651397.14546
  88658890.82746     -1478.94146        42.925
  22303581.86047 117206118.98547      -745.25847        44.544    22303581.23943
  91329446.95343      -580.72343        34.945
  24622918.63945 129394307.07145       937.49645        40.977    24622918.33148
 100826730.27948       730.51248        45.658
  23992685.96144 126082437.55044     -3234.37544        36.883    23992685.82442
  98246049.88742     -2520.30142        33.946
  21774318.92749 114424828.12549     -1921.46949        47.840    21774318.41245
  89162221.38345     -1497.25045        40.773
  23906584.69846 125629962.39546      2925.38346        42.873    23906582.35043
  97893478.32143      2279.51643        35.298
  24152874.73944 126924209.33544      2125.81244        37.603    24152878.32348
  98901999.33148      1656.47748        46.539
  21361274.24349 112254319.57349      2804.82049        48.422    21361273.50046
  87470921.78646      2185.57046        42.281
  20457276.21849 107503794.43549      -797.40249        50.877    20457277.89547
  83769207.47347      -621.35547        45.365
 20  9  1  0  9  0.0000000  0 10G 1G10G11G12G20G21G22G25G31G32
  22461653.48547 118036791.42947      2122.18047        45.337    22461656.12145
  91976736.08445      1653.64545        40.030
  21662260.56949 113835968.59349     -1908.64849        48.662    21662262.47946
  88703383.30446     -1487.26246        43.299
  22307892.94647 117228773.53947      -764.90647        44.865    22307892.00743
  91347099.86143      -596.03543        35.958
  24617614.38145 129366431.75545       920.64145        40.173    24617613.36848
 100805009.22648       717.37948        45.698
  24011164.16745 126179543.22745     -3239.59445        39.855    24011164.41342
  98321716.62542     -2524.35942        33.890
  21785326.76748 114482675.18648     -1934.94548        47.762    21785326.16845
  89207296.99045     -1507.75445        40.869
  23889889.23746 125542230.42246      2923.27346        41.707    23889886.72542
  97825115.78742      2277.87142        34.341
  24140768.73245 126860590.63045      2114.97345        40.949    24140771.73247
  98852426.30647      1648.02347        45.236
  21345303.58049 112170393.11249      2790.29749        48.303    21345302.36546
  87405524.57846      2174.25446        41.902
  20461855.09949 107527855.87749      -806.70349        50.735    20461856.76147
  83787956.64747      -628.60247        45.335
 20  9  1  0  9 30.0000000  0 10G 1G10G11G12G20G21G22G25G31G32
  22449585.06947 117973371.15447      2105.90247        45.003    22449588.05645
  91927317.71645      1640.96145        39.966
  21673187.37349 113893389.26149     -1919.45749        48.292    21673189.12646
  88748126.67646     -1495.68446        42.966
  22312315.67747 117252014.69747      -784.42247        44.880    22312314.97043
  91365209.83443      -611.24243        34.810
  24612404.31944 129339058.33444       903.93844        38.551    24612404.01747
 100783679.36947       704.36347        43.791
  24029674.18946 126276810.03946     -3244.88746        42.445    24029673.95142
  98397508.96942     -2528.48842        33.643
  21796410.99549 114540922.89849     -1948.22349        47.819    21796410.41345
  89252684.79945     -1518.09845        40.561
  23873205.42347 125454556.55347      2921.51247        44.409    23873202.78942
  97756798.50042      2276.50042        34.065
  24128726.38745 126797305.28945      2103.63745        40.222    24128728.69048
  98803113.05048      1639.19548        46.688
  21329416.36549 112086905.24449      2775.62149        48.330    21329414.95946
  87340469.12246      2162.82046        41.795
  20466487.64349 107552199.36949      -816.21549        50.691    20466489.44248
  83806925.60548      -636.01648        45.711
 20  9  1  0 10  0.0000000  0 10G 1G10G11G12G20G21G22G25G31G32
  22437611.38947 117910449.57947      2089.07047        44.537    22437614.29845
  91878287.91045      1627.84445        40.048
  21684175.41849 113951131.76849     -1930.23849        48.368    21684177.15546
  88793120.82646     -1504.08646        43.333
  22316849.72347 117275840.83447      -803.90647        45.021    22316848.95343
  91383775.64943      -626.42243        35.950
  24607290.57544 129312188.65044       887.16444        38.776    24607290.55247
 100762741.91747       691.29347        44.697
  24048214.07344 126374237.11544     -3250.13344        38.176    24048214.25142
  98473426.11942     -2532.57842        33.313
  21807571.10348 114599569.27048     -1961.49648        47.757    21807570.44745
  89298383.25845     -1528.44145        40.561
  23856533.22847 125366941.96547      2919.52347        44.431    23856530.04142
  97688527.41242      2274.94942        32.873
  24116747.25044 126734356.38844      2092.98444        38.683    24116750.37849
  98754062.01649      1630.89549        48.366
  21313612.94349 112003858.42749      2760.87149        48.340    21313611.53046
  87275757.35046      2151.32446        41.797
  20471173.56949 107576823.86949      -825.52749        50.717    20471175.51948
  83826113.53348      -643.27048        45.651
 20  9  1  0 10 30.0000000  0 10G 1G10G11G12G20G21G22G25G31G32
  22425732.86947 117848028.80847      2072.44147        44.560    22425735.74745
  91829648.36145      1614.88745        39.289
  21695224.83149 114009195.91849     -1940.91049        48.671    21695226.57946
  88838365.61346     -1512.40246        42.655
  22321494.54747 117300250.19847      -823.42247        43.870    22321493.85944
  91402795.91044      -641.62944        37.611
  24602273.57545 129285824.22545       870.34045        40.672    24602273.55146
 100742198.26446       678.18446        42.452
  24066783.79044 126471823.29344     -3255.37544        37.761    24066784.01843
  98549467.24543     -2536.66443        34.926
  21818806.77848 114658612.54948     -1974.61348        47.756    21818805.93545
  89344390.99845     -1538.66445        39.979
  23839872.68647 125279388.06747      2917.37547        44.956    23839869.26643
  97620303.59343      2273.27743        35.183
  24104832.47645 126671746.96645      2080.93845        39.737    24104836.18248
  98705275.53948      1621.50848        46.222
  21297893.82549 111921255.13649      2746.07049        48.235    21297892.58446
  87211391.19246      2139.79346        42.083
  20475912.62849 107601728.33749      -834.79349        50.526    20475914.77748
  83845519.61548      -650.49248        45.764
 20  9  1  0 11  0.0000000  0 10G 1G10G11G12G20G21G22G25G31G32
  22413950.10947 117786111.10347      2055.77047        44.687    22413953.23045
  91781400.82045      1601.89545        38.902
  21706335.26249 114067581.58549     -1951.60949        48.486    21706336.89646
  88883860.93246     -1520.73846        43.032
  22326250.11147 117325241.37047      -842.81247        45.102    22326249.26843
  91422269.52243      -656.73843        35.347
  24597353.23145 129259967.16245       853.57445        40.362    24597352.91346
 100722049.91746       665.12146        42.623
  24085384.11645 126569567.19945     -3260.92245        40.607    24085384.23842
  98625631.28042     -2540.98042        32.358
  21830117.57248 114718051.27248     -1987.93448        47.664    21830116.54645
  89390706.87045     -1549.04345        39.831
  23823224.03247 125191896.22047      2915.11347        44.416    23823220.45843
  97552128.11443      2271.51243        34.788
  24092984.08545 126609480.18745      2069.64545        39.853    24092986.53548
  98656755.94648      1612.70748        45.941
  21282259.87049 111839098.04949      2731.07849        48.430    21282258.57446
  87147372.70446      2128.10946        42.790
  20480704.73749 107626911.73349      -844.15249        50.600    20480707.09448
  83865143.04848      -657.78548        45.843
 20  9  1  0 11 30.0000000  0 10G 1G10G11G12G20G21G22G25G31G32
  22402263.52847 117724698.71547      2038.80547        44.224    22402266.98345
  91733547.03145      1588.67645        38.994
  21717506.86849 114126288.55949     -1962.21549        48.612    21717508.62146
  88929606.62646     -1529.00046        43.059
  22331116.48047 117350812.74847      -862.07847        44.833    22331115.53743
  91442195.26943      -671.75443        34.915
  24592529.86145 129234619.24045       836.28945        40.626    24592529.13647
 100702298.26147       651.65247        44.536
  24104014.08445 126667468.28045     -3265.51645        39.974    24104014.23941
  98701917.81241     -2544.56241        30.394
  21841503.33448 114777883.43248     -2001.00048        47.665    21841501.98745
  89437329.32245     -1559.22345        40.052
  23806586.93347 125104467.75447      2913.07447        44.393    23806583.58042
  97484002.04942      2269.92642        34.321
  24081200.71145 126547558.94145      2058.59045        39.711    24081202.88647
  98608505.62247      1604.09447        44.642
  21266711.26549 111757389.53249      2716.01249        48.384    21266710.14846
  87083703.76146      2116.37146        42.364
  20485549.87349 107652373.01749      -853.41049        50.672    20485552.19547
  83884983.01447      -665.00047        45.368
 20  9  1  0 12  0.0000000  0 10G 1G10G11G12G20G21G22G25G31G32
  22390673.57747 117663793.82147      2021.47347        44.030    22390677.18645
  91686088.68845      1575.17245        40.054
  21728739.51949 114185316.68449     -1972.99649        48.301    21728741.33646
  88975602.55946     -1537.40246        42.822
  22336092.67647 117376962.85247      -881.12947        44.313    22336091.81743
  91462571.94543      -686.59843        35.532
  24587803.38745 129209782.08845       819.55945        39.801    24587802.83547
 100682944.64147       638.61347        44.504
  24122673.47144 126765525.14744     -3271.14144        37.358    24122674.11542
  98778325.73942     -2548.94542        33.757
  21852963.58048 114838107.34448     -2014.00848        47.702    21852962.46445
  89484257.02545     -1569.35945        39.976
  23789962.15846 125017103.87246      2911.05546        42.199    23789959.16044
  97415926.30844      2268.35244        37.047
  24069483.41144 126485986.33144      2046.69944        38.087    24069486.65149
  98560527.02949      1594.82849        48.112
  21251248.36649 111676131.80749      2701.00849        48.088    21251247.39246
  87020386.09346      2104.68046        42.539
  20490447.72049 107678111.12949      -862.50849        50.758    20490449.86847
  83905038.68347      -672.08647        45.483
 20  9  1  0 12 30.0000000  0 10G 1G10G11G12G20G21G22G25G31G32
  22379180.77747 117603398.56447      2004.74247        44.550    22379184.41845
  91639027.46345      1562.13345        39.027
  21740033.05749 114244665.79649     -1983.73049        47.958    21740035.18846
  89021848.60646     -1545.76646        43.263
  22341178.56447 117403689.75347      -900.47347        44.695    22341177.81643
  91483398.07743      -701.67243        35.520
  24583173.98045 129185457.38545       802.12945        39.721    24583174.39048
 100663990.36448       625.03148        45.568
  24141361.87444 126863736.72244     -3275.70744        37.247    24141363.28941
  98854854.12041     -2552.50841        31.893
  21864498.15749 114898721.27649     -2026.98449        47.859    21864497.07345
  89531488.64945     -1579.47345        40.063
  23773349.59846 124929806.18246      2908.94546        41.980    23773347.22344
  97347902.18444      2266.70744        37.155
  24057833.34045 126424765.32645      2035.07845        39.980    24057837.01948
  98512822.41748      1585.77348        47.236
  21235871.80749 111595327.76249      2685.85249        48.301    21235870.95446
  86957421.93946      2092.86746        42.415
  20495398.10449 107704125.07949      -871.78549        50.740    20495400.08848
  83925309.30048      -679.31648        45.692
 20  9  1  0 13  0.0000000  0 10G 1G10G11G12G20G21G22G25G31G32
  22367785.33147 117543515.14047      1987.25847        44.865    22367788.94345
  91592365.07545      1548.50845        40.069
  21751387.72049 114304335.67149     -1994.45749        48.148    21751390.12846
  89068344.60146     -1554.12546        42.757
  22346374.02647 117430992.00547      -919.80947        44.430    22346372.98043
  91504672.55543      -716.73843        35.958
  24578643.02745 129161646.89645       784.87945        39.662    24578644.02948
 100645436.77448       611.59048        46.813
  24160080.98946 126962102.00546     -3281.51246        41.717    24160081.61542
  98931502.37342     -2557.02342        33.618
  21876106.44749 114959723.23549     -2039.80549        47.787    21876105.33145
  89579022.63045     -1589.46145        39.941
  23756749.62046 124842575.85546      2906.52746        41.944    23756747.59544
  97279930.55344      2264.82444        37.319
  24046251.32045 126363898.99145      2022.76645        39.710    24046253.95148
  98465394.12148      1576.18048        45.786
  21220581.95349 111514979.45249      2670.64849        48.404    21220581.01946
  86894812.88546      2081.02346        42.113
  20500400.77149 107730413.79649      -880.96149        50.707    20500402.65848
  83945794.01748      -686.46548        45.687
 20  9  1  0 13 30.0000000  0 10G 1G10G11G12G20G21G22G25G31G32
  22356487.89247 117484145.69947      1970.52347        44.716    22356490.89245
  91546103.17545      1535.46945        39.736
  21762803.48949 114364326.09149     -2005.12549        47.869    21762805.88346
  89115090.39346     -1562.43846        42.433
  22351678.64747 117458867.57547      -938.65647        44.602    22351677.82442
  91526393.74642      -731.42242        34.200
  24574210.43845 129138351.86745       767.43445        39.750    24574211.08447
 100627284.80347       597.99647        45.429
  24178828.97345 127060619.78145     -3286.14845        39.903    24178828.87341
  99008269.45841     -2560.63741        28.033
  21887788.23049 115021111.36149     -2052.77349        47.874    21887786.90945
  89626857.51445     -1599.56645        39.796
  23740162.90646 124755413.96446      2904.26246        43.105    23740160.93743
  97212012.21543      2263.05943        36.281
  24034737.04345 126303390.24345      2011.63345        39.208    24034738.76548
  98418244.47048      1567.50448        45.699
  21205379.42249 111435089.45849      2655.32449        48.277    21205378.51246
  86832560.97146      2069.08246        42.664
  20505455.48349 107756976.26449      -890.01649        50.700    20505457.48148
  83966492.05248      -693.52348        45.696
 20  9  1  0 14  0.0000000  0 10G 1G10G11G12G20G21G22G25G31G32
  22345288.49847 117425292.37247      1953.21547        44.932    22345291.16545
  91500243.44245      1521.98045        39.862
  21774280.23049 114424636.86249     -2015.63749        48.031    21774282.32846
  89162085.78446     -1570.62946        42.598
  22357092.13247 117487314.94047      -957.73047        45.116    22357091.50243
  91548560.51643      -746.28543        35.788
  24569876.64146 129115574.73146       750.68446        41.693    24569876.32347
 100609536.41347       584.94547        43.835
  24197604.91344 127159289.21044     -3291.26644        37.130    24197604.69741
  99085154.71541     -2564.62541        31.779
  21899543.11448 115082883.99548     -2065.52048        47.517    21899541.85845
  89674992.01545     -1609.50045        40.099
  23723589.99047 124668322.11747      2901.88747        44.578    23723587.85943
  97144148.44643      2261.20743        35.413
  24023290.71845 126243242.11245      1998.64145        39.940    24023293.52448
  98371375.87348      1557.38348        46.841
  21190264.60749 111355660.22249      2639.95749        48.470    21190263.70746
  86770668.08346      2057.10546        42.228
  20510562.09849 107783811.42849      -899.05949        50.754    20510564.07147
  83987402.57447      -700.56647        45.547
 20  9  1  0 14 30.0000000  0 10G 1G10G11G12G20G21G22G25G31G32
  22334187.73147 117366957.24947      1935.88747        45.073    22334190.68045
  91454787.52145      1508.48045        40.299
  21785817.93749 114485267.77849     -2026.44549        48.392    21785819.93446
  89209330.63046     -1579.05146        42.065
  22362614.16647 117516332.38747      -977.02047        44.855    22362613.49144
  91571171.51444      -761.31644        36.957
  24565641.62446 129093316.58346       733.27746        41.813    24565640.46247
 100592192.39947       571.38347        43.692
  24216409.28144 127258109.04444     -3296.46144        38.632    24216409.71141
  99162157.09541     -2568.67641        27.942
  21911370.69648 115145039.05848     -2078.10948        47.218    21911369.61845
  89723424.51245     -1619.30945        39.573
  23707030.94947 124581301.83647      2899.34047        44.169    23707028.70644
  97076340.45144      2259.22344        38.330
  24011914.50546 126183457.62546      1986.79746        41.615    24011917.89949
  98324790.58349      1548.14849        47.884
  21175237.93049 111276694.24049      2624.38349        48.479    21175236.93746
  86709136.18246      2044.96946        42.685
  20515720.30049 107810918.28949      -908.06249        50.691    20515722.17647
  84008524.80047      -707.58647        45.075
 20  9  1  0 15  0.0000000  0 10G 1G10G11G12G20G21G22G25G31G32
  22323186.20647 117309142.49047      1918.39547        45.546    22323189.20345
  91409737.05645      1494.85245        39.624
  21797416.69049 114546218.52649     -2037.02349        48.241    21797418.44446
  89256824.71246     -1587.29346        42.200
  22368244.32747 117545918.26547      -995.60947        44.715    22368243.41844
  91594225.43044      -775.80144        37.068
  24561505.25145 129071579.00245       715.65645        40.818    24561503.69147
 100575254.00847       557.65247        45.381
  24235242.84445 127357078.05745     -3301.62545        41.044    24235243.59643
  99239275.74243     -2572.70343        34.934
  21923270.81648 115207574.76148     -2090.89148        47.272    21923269.66045
  89772153.60845     -1629.27045        40.291
  23690485.45747 124494354.47347      2897.16447        43.607    23690482.96143
  97008589.27643      2257.52743        35.145
  24000608.11145 126124039.65545      1974.73045        39.997    24000610.96348
  98278490.88948      1538.74648        46.856
  21160299.93249 111198193.86449      2608.88349        48.679    21160298.62346
  86647967.06846      2032.89146        42.761
  20520929.92249 107838295.76749      -916.96949        50.565    20520931.91147
  84029857.90647      -714.52347        45.148
 20  9  1  0 15 30.0000000  0 10G 1G10G11G12G20G21G22G25G31G32
  22312283.95948 117251850.12548      1900.94548        45.827    22312286.96144
  91365093.67544      1481.25444        38.725
  21809076.13949 114607488.93449     -2047.74249        48.029    21809077.78946
  89304567.86946     -1595.64546        42.962
  22373982.10347 117576070.68347     -1014.26247        44.909    22373981.01243
  91617720.82243      -790.33643        36.571
  24557467.46744 129050363.38044       698.69944        38.714    24557466.81346
 100558722.40546       544.43846        42.837
  24254104.60545 127456195.25545     -3306.71945        40.032    24254105.04341
  99316509.92741     -2576.66841        31.367
  21935243.17548 115270489.43948     -2103.41048        47.563    21935241.90045
  89821178.02445     -1639.02345        39.717
  23673953.63746 124407481.33046      2894.51646        42.222    23673951.14743
  96940895.96143      2255.46543        35.753
  23989371.32645 126064991.15245      1962.51245        39.833    23989373.63448
  98232479.14148      1529.22748        46.744
  21145451.00949 111120161.43749      2593.22749        48.582    21145449.65146
  86587162.60146      2020.69146        43.077
  20526190.84749 107865942.89649      -926.11749        50.526    20526192.91147
  84051401.12047      -721.65247        45.070
 20  9  1  0 16  0.0000000  0 10G 1G10G11G12G20G21G22G25G31G32
  22301481.45748 117195082.23748      1883.65648        45.774    22301484.20245
  91320858.96445      1467.78145        39.843
  21820796.45649 114669078.75149     -2058.38349        48.344    21820797.91146
  89352559.92146     -1603.93846        41.562
  22379827.21147 117606787.70247     -1033.29747        44.629    22379826.34943
  91641656.15143      -805.16843        36.110
  24553529.53644 129029672.11544       680.85544        38.486    24553529.42348
 100542599.31548       530.53548        46.268
  24272993.05144 127555459.47444     -3311.01644        37.766    24272994.04843
  99393858.60943     -2580.01643        35.228
  21947287.23049 115333781.08249     -2115.91049        47.969    21947286.06145
  89870496.17745     -1648.76645        39.863
  23657436.47347 124320683.56147      2892.07847        43.349    23657433.89043
  96873261.37243      2253.56243        35.915
  23978205.89346 126006315.15146      1949.85246        41.266    23978207.36248
  98186757.57248      1519.36348        45.562
  21130691.29949 111042599.21149      2577.64549        48.470    21130690.26446
  86526724.53146      2008.55146        42.545
  20531502.93349 107893858.62849      -935.03549        50.425    20531505.11247
  84073153.64347      -728.60247        45.145
 20  9  1  0 16 30.0000000  0 10G 1G10G11G12G20G21G22G25G31G32
  22290778.94947 117138840.86047      1865.91447        45.475    22290781.35844
  91277034.53644      1453.95744        38.535
  21832577.39449 114730987.71149     -2068.98849        48.096    21832578.91446
  89400800.66446     -1612.20346        42.214
  22385779.30947 117638067.53047     -1052.04347        44.595    22385778.79143
  91666030.02243      -819.77743        35.102
  24549691.95245 129009506.27945       663.36345        39.929    24549692.21247
 100526885.69947       516.90247        44.625
  24291910.05045 127654869.71945     -3315.89545        39.378    24291911.45541
  99471321.06641     -2583.81641        28.604
  21959402.72248 115397447.80348     -2128.33648        47.560    21959401.48545
  89920106.58145     -1658.44545        39.865
  23640934.36047 124233962.82447      2889.21947        44.080    23640931.47743
  96805686.79043      2251.33643        35.568
  23967111.88745 125948014.61345      1937.14545        40.577    23967113.77448
  98141328.59748      1509.46148        46.286
  21116021.59049 110965509.88549      2561.68449        48.752    21116020.54046
  86466654.94746      1996.11346        42.582
  20536865.88949 107922041.92149      -943.94949        50.559    20536868.15947
  84095114.64647      -735.54747        45.099
 20  9  1  0 17  0.0000000  0 10G 1G10G11G12G20G21G22G25G31G32
  22280177.21747 117083128.06847      1848.12147        45.465    22280179.36545
  91233621.97645      1440.01245        40.175
  21844418.83348 114793215.55448     -2079.78148        47.574    21844420.59446
  89449289.87646     -1620.61346        42.560
  22391838.36347 117669908.22847     -1070.77047        44.816    22391837.57843
  91690840.95343      -834.36743        35.808
  24545954.61245 128989866.94845       645.73845        39.631    24545955.32248
 100511582.38448       503.16848        46.159
  24310855.52345 127754424.63845     -3320.95345        40.720    24310856.21642
  99548896.34542     -2587.75842        34.141
  21971589.12848 115461487.59748     -2140.78148        47.332    21971587.72745
  89970007.70345     -1668.14545        38.979
  23624447.33247 124147320.55547      2886.80547        45.077    23624443.74643
  96738173.34143      2249.45343        34.632
  23956088.86545 125890092.31845      1924.12945        38.905    23956092.35749
  98096194.41149      1499.31649        47.943
  21101442.29749 110888895.02149      2545.81249        48.618    21101441.13646
  86406955.07046      1983.74646        42.866
  20542279.67849 107950491.78249      -952.78949        50.337    20542281.84547
  84117283.37047      -742.43847        44.876
 20  9  1  0 17 30.0000000  0 10G 1G10G11G12G20G21G22G25G31G32
  22269676.37647 117027945.85347      1830.65647        45.391    22269678.56945
  91190622.86645      1426.48045        39.618
  21856321.02849 114855762.00749     -2090.14849        48.089    21856322.57746
  89498027.35546     -1628.69146        41.643
  22398004.05147 117702308.16647     -1089.28547        45.289    22398002.93843
  91716087.65443      -848.79743        36.549
  24542318.03545 128970756.36245       628.05545        40.208    24542318.63548
 100496690.99348       489.39148        46.253
  24329827.82745 127854123.14945     -3325.64545        39.324    24329827.78242
  99626583.45842     -2591.41442        33.096
  21983846.00048 115525898.57448     -2153.11748        46.633    21983844.99545
  90020198.05345     -1677.75845        39.885
  23607975.43147 124060758.17247      2884.14147        45.442    23607971.99044
  96670722.13144      2247.37944        36.724
  23945138.40545 125832551.27045      1911.67245        40.706    23945142.52148
  98051357.28548      1489.60948        47.193
  21086953.53749 110812757.37349      2529.86749        48.092    21086952.45646
  86347627.06046      1971.32046        42.852
  20547744.04949 107979207.17549      -961.64549        50.459    20547746.03547
  84139658.99947      -749.33647        44.927
 20  9  1  0 18  0.0000000  0 10G 1G10G11G12G20G21G22G25G31G32
  22259276.78447 116973296.23347      1812.59047        45.005    22259279.25945
  91148038.75045      1412.40645        39.393
  21868283.69348 114918626.73248     -2100.82848        47.402    21868285.26246
  89547012.85546     -1637.01246        42.246
  22404275.50547 117735265.15847     -1107.79347        44.208    22404274.83643
  91741768.41543      -863.21943        36.038
  24538782.34445 128952175.63345       610.57045        40.244    24538782.92247
 100482212.53347       475.76647        45.547
  24348826.92244 127953964.35144     -3330.40644        37.192    24348827.06741
  99704381.73841     -2595.12541        31.931
  21996173.10448 115590678.55048     -2165.40648        47.336    21996172.18045
  90070675.94345     -1687.33245        39.667
  23591518.60947 123974276.97247      2881.29347        44.631    23591515.54744
  96603334.21044      2245.16044        36.843
  23934262.15346 125775394.47946      1898.94146        41.371    23934265.09048
  98006819.52848      1479.69148        46.160
  21072556.11149 110737099.53749      2513.96549        48.339    21072555.13046
  86288672.93046      1958.93046        42.263
  20553258.72449 108008187.08349      -970.32849        50.443    20553260.70647
  84162240.74247      -756.10247        44.676
 20  9  1  0 18 30.0000000  0 10G 1G10G11G12G20G21G22G25G31G32
  22248978.82847 116919181.17947      1794.87547        45.386    22248981.57345
  91105871.19845      1398.60245        40.666
  21880306.75649 114981809.49649     -2111.44149        47.779    21880308.52446
  89596246.15446     -1645.28146        41.631
  22410652.45847 117768777.38747     -1126.35947        44.359    22410651.95743
  91767881.82043      -877.68843        35.252
  24535347.28244 128934125.79944       592.78944        38.779    24535347.99148
 100468147.73648       461.79348        45.736
  24367852.61245 128053947.24645     -3335.14145        39.371    24367853.60141
  99782290.39241     -2598.81241        30.648
  22008570.37048 115655825.94948     -2177.66448        47.579    22008569.27145
  90121440.12745     -1696.88345        38.980
  23575077.34247 123887878.41747      2878.52047        43.778    23575074.26742
  96536010.67342      2243.00042        34.053
  23923459.85345 125718624.68445      1885.75045        40.066    23923462.03248
  97962583.31248      1469.41448        46.743
  21058250.55149 110661923.39849      2497.84849        48.466    21058249.33846
  86230094.13746      1946.37146        42.784
  20558823.53749 108037430.46849      -979.18049        50.354    20558825.59747
  84185027.79347      -763.00047        44.864
 20  9  1  0 19  0.0000000  0 10G 1G10G11G12G20G21G22G25G31G32
  22238783.02847 116865602.63047      1777.09847        45.264    22238785.74245
  91064121.68345      1384.75045        39.918
  21892390.36649 115045309.99449     -2121.93849        47.878    21892392.28546
  89645727.06446     -1653.46146        41.804
  22417134.90347 117802842.92047     -1144.83647        44.741    22417134.39143
  91794426.37343      -892.08243        36.443
  24532013.70245 128916608.38145       574.97345        40.176    24532014.37247
 100454497.81347       448.02747        45.013
  24386905.64245 128154070.00345     -3339.97745        40.425    24386906.20941
  99860308.10541     -2602.58241        28.949
  22021037.13548 115721338.66748     -2189.83248        47.335    22021035.86545
  90172488.98645     -1706.36745        39.784
  23558651.33546 123801563.94146      2875.73446        43.049    23558649.13944
  96468752.71844      2240.82844        36.838
  23912730.21644 125662244.81144      1873.09444        38.621    23912733.25048
  97918650.98548      1459.55148        47.067
  21044037.02049 110587231.41149      2481.57449        48.270    21044035.98646
  86171892.62546      1933.69146        43.293
  20564438.39749 108066936.36049      -987.87149        50.520    20564440.45447
  84208019.38847      -769.77347        44.657
 20  9  1  0 19 30.0000000  0 10G 1G10G11G12G20G21G22G25G31G32
  22228689.83147 116812562.59647      1758.89547        45.314    22228692.36245
  91022791.78845      1370.56245        38.974
  21904534.50448 115109127.91948     -2132.55948        47.453    21904536.43746
  89695455.29646     -1661.73846        41.683
  22423722.30047 117837459.80847     -1163.05947        44.023    22423721.91643
  91821400.56743      -906.28143        36.088
  24528782.21845 128899625.61145       557.07445        40.714    24528782.84747
 100441264.53647       434.08247        44.381
  24405984.82344 128254331.77544     -3344.14544        37.973    24405984.92842
  99938434.20442     -2605.83242        34.119
  22033572.90648 115787214.63348     -2201.89848        47.234    22033571.63145
  90223820.89845     -1715.77045        39.635
  23542242.24946 123715335.10446      2873.02346        43.050    23542240.79344
  96401561.45144      2238.71544        38.167
  23902076.03345 125606257.72445      1859.59445        39.901    23902079.72849
  97875024.77249      1449.03549        47.927
  21029916.15349 110513025.68849      2465.28949        48.605    21029915.09846
  86114070.00446      1921.00046        42.723
  20570103.09049 108096703.69949      -996.53149        50.678    20570104.95747
  84231214.72847      -776.52047        44.895
 20  9  1  0 20  0.0000000  0 10G 1G10G11G12G20G21G22G25G31G32
  22218699.30047 116760062.94647      1740.98447        45.091    22218701.88745
  90981883.00045      1356.60945        39.109
  21916739.15949 115173262.94449     -2143.16449        47.899    21916740.84346
  89745430.64746     -1670.00046        41.340
  22430414.11447 117872625.86247     -1181.25447        44.907    22430413.83642
  91848802.65542      -920.46142        34.149
  24525652.61545 128883178.30545       539.45345        39.742    24525653.04448
 100428448.43948       420.30948        46.537
  24425089.97544 128354731.41144     -3349.04344        37.971    24425090.38842
 100016667.55342     -2609.65242        34.190
  22046177.47948 115853451.66848     -2213.91048        46.788    22046176.29545
  90275434.16645     -1725.12945        39.725
  23525849.86947 123629193.33047      2870.12147        44.295    23525848.64244
  96334438.04444      2236.45344        37.133
  23891497.79945 125550666.41945      1846.35945        40.505    23891500.34347
  97831706.84047      1438.71947        45.028
  21015888.40449 110439308.54149      2449.00849        48.797    21015887.20446
  86056628.08246      1908.31646        42.652
  20575817.35049 108126731.50049     -1005.19149        50.528    20575819.01347
  84254613.01347      -783.27047        44.891
 20  9  1  0 20 30.0000000  0 10G 1G10G11G12G20G21G22G25G31G32
  22208811.93647 116708105.63847      1722.89547        44.680    22208815.07545
  90941396.78945      1342.51245        40.088
  21929003.85148 115237714.74448     -2153.62548        47.507    21929005.73746
  89795652.81246     -1678.15246        41.546
  22437210.47247 117908339.46347     -1199.70747        45.079    22437210.01343
  91876631.43643      -934.84043        35.672
  24522624.95945 128867267.60545       521.22345        40.501    24522625.55548
 100416050.50748       406.14548        46.251
  24444221.72545 128455267.81245     -3353.42645        39.541    24444221.46843
 100095007.57443     -2613.06643        35.681
  22058850.22348 115920048.03948     -2225.83248        47.162    22058849.27745
  90327327.43245     -1734.41845        39.446
  23509474.75547 123543140.01547      2866.93447        44.904    23509472.97443
  96267383.51843      2233.97343        36.347
  23880995.33246 125495473.53446      1833.27746        41.261    23880996.50148
  97788699.41948      1428.52348        45.892
  21001953.86349 110366082.02649      2432.66849        48.626    21001952.75946
  85999568.48246      1895.58246        43.022
  20581580.94849 108157018.79249     -1013.99649        50.625    20581582.50747
  84278213.49247      -790.12947        44.651
 20  9  1  0 21  0.0000000  0 10G 1G10G11G12G20G21G22G25G31G32
  22199028.49647 116656692.59047      1704.77347        45.093    22199031.75045
  90901334.67945      1328.39145        40.570
  21941328.93248 115302482.95748     -2164.03948        47.524    21941330.82046
  89846121.53446     -1686.26646        41.684
  22444110.37347 117944598.04147     -1217.75847        45.046    22444109.71843
  91904884.84743      -948.90643        36.219
  24519699.87045 128851894.85745       503.49245        40.549    24519700.11947
 100404071.77147       392.32847        44.699
  24463379.22745 128555939.93345     -3358.07845        39.460    24463378.64741
 100173453.34841     -2616.69141        31.743
  22071590.80248 115987001.61248     -2237.73848        46.655    22071590.10144
  90379499.02644     -1743.69544        38.654
  23493116.78147 123457176.63947      2863.88347        44.175    23493114.42044
  96200399.07144      2231.59444        38.568
  23870568.70345 125440682.05845      1819.77345        39.967    23870570.12848
  97746004.76448      1418.00448        46.386
  20988113.05949 110293348.54549      2416.24649        48.482    20988112.20846
  85942893.07546      1882.78546        43.175
  20587393.66549 108187564.50649     -1022.43049        50.675    20587395.19347
  84302015.35047      -796.70347        44.716
 20  9  1  0 21 30.0000000  0 10G 1G10G11G12G20G21G22G25G31G32
  22189348.90547 116605825.58947      1686.41847        45.130    22189352.41645
  90861698.07345      1314.09045        40.639
  21953714.07248 115367567.28248     -2174.62548        47.355    21953716.02646
  89896836.59046     -1694.51646        41.862
  22451113.26047 117981399.54747     -1235.68047        44.417    22451112.54543
  91933561.35143      -962.87143        35.925
  24516877.34445 128837061.65845       485.23045        40.415    24516876.92847
 100392513.44247       378.13347        44.420
  24482562.18344 128656746.55844     -3362.19944        38.141    24482561.09941
 100252003.97941     -2619.90241        27.745
  22084399.14848 116054310.28248     -2249.68448        46.861    22084398.47344
  90431947.32744     -1753.00444        38.834
  23476775.45847 123371304.58147      2860.81247        43.425    23476773.19043
  96133485.83343      2229.20343        36.399
