     2.11           OBSERVATION DATA    G                   RINEX VERSION / TYPE
sbf2rin-13.2.0                          02-SEP-20 00:03     PGM / RUN BY / DATE
usn8                                                        MARKER NAME
40451S009                                                   MARKER NUMBER
Time Services       USNO                                    OBSERVER / AGENCY
4701171             SEPT POLARX5TR      5.2.0               REC # / TYPE / VERS
762-11615           TPSCR.G5        TPSH                    ANT # / TYPE
  1112161.9919 -4842855.0890  3985497.3152                  APPROX POSITION XYZ
        0.0000        0.0000        0.0000                  ANTENNA: DELTA H/E/N
     1     1                                                WAVELENGTH FACT L1/2
     7    C1    L1    L2    P2    P1    S1    S2            # / TYPES OF OBSERV
For GPS, L2 corresponds to the L2P carrier phase.           COMMENT
    30.000                                                  INTERVAL
  2020     9     1     0     0    0.0000000     GPS         TIME OF FIRST OBS
  2020     9     1    23    59   30.0000000     GPS         TIME OF LAST OBS
    30                                                      # OF SATELLITES
                                                            END OF HEADER
 20  9  1  0  0  0.0000000  0 10G24G10G20G11G01G21G32G12G25G31
  23970263.969 6 125964644.57606  98154292.80806  23970264.272 6  23970263.518 6
        39.500          37.500
  20441361.167 8 107420115.82308  83704001.02108  20441361.459 8  20441360.846 8
        51.750          51.000
  22001100.182 7 115616589.21407  90090855.19706  22001098.137 6  22001099.038 6
        46.500          38.250
  24456404.027 6 128519282.52106 100144865.89403  24456401.306 3  24456403.393 3
        37.500          20.250
  24330673.936 6 127858556.80206  99630058.78504  24330674.644 4  24330673.570 4
        39.000          24.500
  22906892.425 7 120376548.82707  93799902.12006  22906889.696 6  22906891.267 6
        46.250          36.000
  20749771.745 8 109040857.39808  84966917.30408  20749771.699 8  20749771.593 8
        52.000          49.500
  22578904.728 7 118652996.75107  92456875.82107  22578902.530 7  22578904.192 7
        45.500          47.000
  22243130.026 7 116888494.60607  91081941.68606  22243131.187 6  22243129.163 6
        45.000          37.500
  22191606.116 7 116617738.76007  90870981.45606  22191602.919 6  22191605.768 6
        46.500          39.500
 20  9  1  0  0 30.0000000  0 10G24G10G20G11G01G21G32G12G25G31
  23990435.975 6 126070651.03406  98236895.24606  23990436.168 6  23990435.537 6
        38.500          36.500
  20446672.089 8 107448025.03808  83725748.45808  20446672.513 8  20446671.768 8
        52.250          51.000
  22018874.619 7 115709995.84307  90163639.56006  22018872.895 6  22018873.461 6
        47.500          38.250
  24460943.132 6 128543139.83406 100163455.99503  24460941.613 3  24460942.506 3
        37.750          19.750
  24319655.569 6 127800659.16006  99584943.73704  24319656.704 4  24319655.221 4
        38.500          24.000
  22915492.378 7 120421742.88707  93835118.26005  22915489.888 5  22915491.207 5
        46.250          35.750
  20744530.199 8 109013312.95808  84945454.10308  20744530.148 8  20744530.061 8
        52.250          49.250
  22575693.311 7 118636119.27307  92443724.55807  22575691.073 7  22575692.784 7
        45.500          46.750
  22229937.988 7 116819170.09707  91027922.62407  22229939.270 7  22229937.121 7
        45.500          43.750
  22173964.627 8 116525033.55308  90798743.67106  22173961.947 6  22173964.274 6
        48.000          40.500
 20  9  1  0  1  0.0000000  0 10G24G10G20G11G01G21G32G12G25G31
  24010623.420 6 126176735.60506  98319558.54106  24010623.773 6  24010623.009 6
        38.750          36.750
  20452080.948 8 107476448.46108  83747896.57708  20452081.222 8  20452080.622 8
        52.000          51.000
  22036709.051 7 115803715.91307  90236668.15906  22036706.835 6  22036707.884 6
        46.250          37.750
  24465576.402 6 128567485.04506 100182426.27903  24465574.455 3  24465575.763 3
        37.750          21.500
  24308733.911 6 127743261.33806  99540218.21003  24308734.972 3  24308733.581 3
        36.750          23.250
  22924162.394 7 120467302.55507  93870619.28205  22924159.411 5  22924161.223 5
        45.500          35.250
  20739328.672 8 108985978.98108  84924154.90708  20739328.828 8  20739328.534 8
        52.000          49.500
  22572595.633 7 118619840.03507  92431039.45507  22572593.401 7  22572595.115 7
        44.250          46.750
  22216828.305 7 116750277.28807  90974239.95307  22216829.581 7  22216827.456 7
        45.500          44.000
  22156386.996 7 116432662.40407  90726766.19806  22156384.938 6  22156386.643 6
        47.000          40.750
 20  9  1  0  1 30.0000000  0 10G24G10G20G11G01G21G32G12G25G31
  24030825.548 6 126282896.37206  98402281.20906  24030825.437 6  24030825.164 6
        37.000          36.500
  20457587.451 8 107505386.17008  83770445.43608  20457587.793 8  20457587.125 8
        52.000          51.000
  22054603.007 7 115897747.53507  90309939.53006  22054600.533 6  22054601.849 6
        46.500          37.750
  24470301.440 6 128592316.68106 100201775.63103  24470299.087 3  24470300.814 3
        36.750          20.250
  24297905.940 6 127686365.23606  99495883.59504  24297908.226 4  24297905.601 4
        36.500          24.000
  22932901.768 7 120513226.20307  93906403.92805  22932898.187 5  22932900.570 5
        45.000          34.750
  20734167.536 8 108958855.71808  84903019.90808  20734167.485 8  20734167.402 8
        51.500          49.500
  22569611.900 7 118604159.77407  92418821.08407  22569609.635 7  22569611.368 7
        44.250          46.750
  22203801.266 7 116681819.15507  90920895.98408  22203802.166 8  22203800.395 8
        46.000          49.500
  22138873.108 7 116340627.04707  90655050.36406  22138870.871 6  22138872.751 6
        47.250          40.750
 20  9  1  0  2  0.0000000  0 10G24G10G20G11G01G21G32G12G25G31
  24051040.815 6 126389131.04106  98485061.44906  24051041.942 6  24051040.453 6
        38.500          37.000
  20463192.113 8 107534838.17708  83793395.04808  20463192.296 8  20463191.792 8
        51.750          50.750
  22072555.646 7 115992088.69807  90383452.09306  22072553.570 6  22072554.479 6
        46.000          37.500
  24475118.806 6 128617632.96406 100221502.57103  24475116.925 3  24475118.158 3
        37.750          21.250
  24287175.441 6 127629972.67706  99451941.37404  24287177.177 4  24287175.124 4
        37.750          24.750
  22941709.436 7 120559511.59807  93942470.45605  22941706.264 5  22941708.225 5
        44.750          34.750
  20729046.213 8 108931943.39408  84882049.27108  20729046.167 8  20729046.079 8
        51.500          49.500
  22566742.008 7 118589080.14007  92407070.73707  22566739.243 7  22566741.472 7
        45.250          46.250
  22190857.231 7 116613798.73607  90867893.09008  22190858.053 8  22190856.373 8
        45.750          49.500
  22121423.672 7 116248929.27707  90583597.59206  22121421.397 6  22121423.319 6
        47.250          40.500
 20  9  1  0  2 30.0000000  0 10G24G10G20G11G01G21G32G12G25G31
  24071270.085 6 126495437.55206  98567897.69906  24071271.058 6  24071269.701 6
        38.500          36.500
  20468894.716 8 107564804.55308  83816745.46408  20468894.881 8  20468894.395 8
        52.000          50.750
  22090566.339 7 116086737.50307  90457204.38006  22090564.434 6  22090565.168 6
        46.750          37.000
  24480028.787 6 128643431.59906 100241605.42203  24480026.623 3  24480028.117 3
        37.000          19.750
  24276541.203 6 127574085.52306  99408392.95804  24276542.232 4  24276540.908 4
        37.750          25.250
  22950585.429 7 120606156.38707  93978817.03905  22950582.180 5  22950584.209 5
        45.250          35.000
  20723965.160 8 108905242.26708  84861243.20308  20723965.281 8  20723965.026 8
        52.000          49.750
  22563986.958 7 118574602.22407  92395789.25807  22563984.299 7  22563986.400 7
        45.000          46.750
  22177997.542 7 116546218.96607  90815233.55908  22177997.966 8  22177996.671 8
        46.250          49.750
  22104039.029 7 116157570.65607  90512409.08206  22104036.297 6  22104038.676 6
        47.250          41.250
 20  9  1  0  3  0.0000000  0 10G24G10G20G11G01G21G32G12G25G31
  24091512.654 6 126601813.80106  98650788.27005  24091513.945 5  24091512.239 5
        37.750          35.750
  20474695.117 8 107595285.28008  83840496.67608  20474695.152 8  20474694.796 8
        51.750          50.750
  22108635.869 7 116181692.17207  90531195.00106  22108633.666 6  22108634.689 6
        46.000          37.000
  24485029.440 6 128669711.36806 100262083.16703  24485027.364 3  24485028.765 3
        36.750          18.500
  24266001.630 6 127518705.51006  99365239.72804  24266003.271 4  24266001.340 4
        40.250          25.250
  22959529.760 7 120653159.19907  94015442.58605  22959527.174 5  22959528.526 5
        45.750          35.500
  20718924.559 8 108878752.56008  84840601.88108  20718924.623 8  20718924.425 8
        51.500          49.500
  22561346.957 7 118560727.40507  92384977.72607  22561344.396 7  22561346.385 7
        44.500          46.500
  22165221.896 7 116479082.86007  90762919.74108  22165222.554 8  22165221.029 8
        45.250          49.500
  22086718.862 7 116066552.90907  90441486.18806  22086716.111 6  22086718.505 6
        47.750          41.000
 20  9  1  0  3 30.0000000  0 10G24G10G20G11G01G21G32G12G25G31
  24111768.885 6 126708258.26706  98733731.99506  24111769.644 6  24111768.470 6
        38.750          36.250
  20480592.997 8 107626280.37608  83864648.69208  20480593.218 8  20480592.680 8
        52.000          51.000
  22126762.754 7 116276950.46707  90605422.22206  22126760.466 6  22126761.552 6
        46.750          37.000
  24490120.770 6 128696470.21806 100282934.20203  24490119.295 3  24490120.113 3
        36.000          18.000
  24255560.780 6 127463834.40706  99322483.03003  24255561.008 3  24255560.490 3
        38.500          23.000
  22968541.888 7 120700517.33907  94052345.01005  22968538.781 5  22968540.654 5
        46.000          35.750
  20713923.770 8 108852474.54308  84820125.50608  20713924.083 8  20713923.627 8
        51.750          50.000
  22558821.571 7 118547456.53507  92374636.80407  22558819.307 7  22558820.999 7
        45.000          47.250
  22152531.554 7 116412393.33807  90710953.90408  22152531.723 8  22152530.705 8
        44.500          49.500
  22069463.647 7 115975877.96807  90370830.40406  22069461.108 6  22069463.285 6
        47.000          41.500
 20  9  1  0  4  0.0000000  0 10G24G10G20G11G01G21G32G12G25G31
  24132036.980 6 126814768.03406  98816726.61906  24132037.859 6  24132036.574 6
        39.250          36.750
  20486589.110 8 107657789.78608  83889201.47808  20486589.266 8  20486588.793 8
        52.000          50.750
  22144947.620 7 116372510.47207  90679884.53206  22144945.406 6  22144946.436 6
        46.250          37.250
  24495304.783 6 128723705.44006 100304156.44803  24495302.344 3  24495304.144 3
        36.500          18.750
  24245215.488 6 127409473.94206  99280124.23703  24245216.603 3  24245215.211 3
        38.500          23.250
  22977621.093 7 120748228.94107  94089522.85905  22977618.549 5  22977619.859 5
        45.500          35.750
  20708963.571 8 108826408.48108  84799814.29508  20708963.909 8  20708963.428 8
        51.750          49.750
  22556411.149 7 118534790.52907  92364767.20307  22556409.111 7  22556410.564 7
        45.000          47.000
  22139926.300 7 116346153.37307  90659338.37908  22139926.590 8  22139925.415 8
        45.250          49.000
  22052274.808 7 115885547.34507  90300442.94806  22052271.837 6  22052274.455 6
        47.500          41.500
 20  9  1  0  4 30.0000000  0 10G24G10G20G11G01G21G32G12G25G31
  24152316.965 6 126921340.98106  98899770.48206  24152317.821 6  24152316.532 6
        39.750          37.000
  20492683.236 8 107689813.48108  83914155.00208  20492683.198 8  20492682.919 8
        51.750          50.750
  22163189.109 7 116468370.80907  90754580.87606  22163187.055 6  22163187.938 6
        46.250          37.250
  24500577.344 6 128751415.70806 100325748.88103  24500575.254 3  24500576.741 3
        36.000          18.000
  24234969.382 6 127355625.90206  99238164.76004  24234970.040 4  24234969.105 4
        39.000          25.000
  22986766.913 7 120796292.18407  94126974.70706  22986764.489 6  22986765.688 6
        46.250          36.000
  20704043.733 8 108800554.59708  84779668.42008  20704043.997 8  20704043.590 8
        51.750          49.750
  22554116.350 7 118522730.84607  92355370.06307  22554113.653 7  22554115.742 7
        44.750          47.000
  22127407.004 7 116280365.87307  90608075.41408  22127407.612 8  22127406.119 8
        44.750          49.500
  22035150.847 8 115795562.58008  90230325.00207  22035148.228 7  22035150.494 7
        48.250          42.000
 20  9  1  0  5  0.0000000  0 10G24G10G20G11G01G21G32G12G25G31
  24172608.821 6 127027975.51406  98982862.31906  24172609.946 6  24172608.325 6
        39.500          37.000
  20498874.798 8 107722351.37608  83939509.20208  20498874.808 8  20498874.481 8
        51.750          50.750
  22181487.198 7 116564528.82707  90829509.16706  22181485.422 6  22181486.036 6
        45.500          36.750
  24505941.337 6 128779599.10106 100347709.94303  24505938.559 3  24505940.756 3
        36.250          18.500
  24224819.535 6 127302292.00606  99196605.88004  24224821.608 4  24224819.272 4
        38.500          25.250
  22995979.477 7 120844704.69607  94164698.73005  22995976.331 5  22995978.252 5
        45.500          35.500
  20699164.281 8 108774913.19208  84759688.10908  20699164.460 8  20699164.143 8
        51.500          49.750
  22551937.402 7 118511278.41507  92346446.10307  22551934.461 7  22551936.794 7
        44.500          47.250
  22114974.989 7 116215033.74507  90557167.29208  22114975.504 8  22114974.109 8
        45.000          49.500
  22018093.396 7 115705925.47407  90160477.94806  22018091.009 6  22018093.039 6
        47.250          41.500
 20  9  1  0  5 30.0000000  0 10G24G10G20G11G01G21G32G12G25G31
  24192912.292 6 127134669.26306  99066000.29606  24192913.214 6  24192911.742 6
        39.500          37.000
  20505164.394 8 107755403.41108  83965264.03008  20505164.417 8  20505164.095 8
        52.250          51.000
  22199841.927 7 116660982.74007  90904668.02606  22199839.854 6  22199840.751 6
        46.750          36.750
  24511393.065 6 128808253.78106 100370038.26402  24511390.777 2  24511392.489 2
        37.250          16.500
  24214768.699 6 127249473.91406  99155448.96004  24214770.183 4  24214768.440 4
        38.750          24.000
  23005258.206 7 120893464.33607  94202693.23905  23005255.395 5  23005256.995 5
        46.250          35.250
  20694325.540 8 108749484.52708  84739873.56908  20694325.431 8  20694325.402 8
        52.250          49.750
  22549873.368 7 118500433.93807  92337995.86807  22549871.080 7  22549872.751 7
        44.250          47.250
  22102629.625 7 116150159.94707  90506616.30708  22102630.249 8  22102628.727 8
        46.000          49.750
  22001102.434 7 115616637.65307  90090903.06406  22001100.100 6  22001102.081 6
        47.500          41.250
 20  9  1  0  6  0.0000000  0 10G24G10G20G11G01G21G32G12G25G31
  24213226.338 6 127241420.47206  99149183.04106  24213227.590 6  24213225.797 6
        37.500          36.500
  20511551.941 8 107788969.42208  83991419.35608  20511551.853 8  20511551.642 8
        52.000          50.750
  22218251.956 7 116757730.67707  90980056.00706  22218250.087 6  22218250.745 6
        46.000          36.000
  24516935.178 6 128837377.74706 100392732.26702  24516933.040 2  24516934.593 2
        38.000          16.500
  24204816.481 6 127197173.31006  99114695.26004  24204817.456 4  24204816.222 4
        38.750          24.000
  23014602.915 7 120942569.36407  94240956.87805  23014599.749 5  23014601.722 5
        45.750          34.750
  20689526.997 8 108724268.84508  84720224.98508  20689527.013 8  20689526.859 8
        52.000          49.750
  22547925.737 7 118490197.96907  92330019.79507  22547923.523 7  22547925.129 7
        44.750          47.500
  22090372.012 7 116085747.29907  90456424.65408  22090373.138 8  22090371.132 8
        46.000          50.000
  21984178.067 7 115527700.72507  90021601.59306  21984175.944 6  21984177.701 6
        47.750          41.500
 20  9  1  0  6 30.0000000  0 10G24G10G20G11G01G21G32G12G25G31
  24233551.036 6 127348227.25406  99232409.09706  24233552.027 6  24233550.500 6
        39.250          36.750
  20518037.100 8 107823049.34908  84017975.14008  20518036.931 8  20518036.801 8
        52.250          50.750
  22236719.070 7 116854770.95807  91055671.77806  22236716.319 6  22236717.868 6
        45.500          36.250
  24522566.681 6 128866968.96206 100415790.36602  24522564.145 2  24522566.127 2
        36.750          17.000
  24194962.583 6 127145391.91806  99074346.15104  24194963.534 4  24194962.355 4
        39.500          24.750
  23024012.203 7 120992017.07607  94279487.54705  23024009.617 5  23024011.014 5
        46.250          35.750
  20684769.324 8 108699266.43508  84700742.58808  20684769.077 8  20684769.195 8
        52.000          50.000
  22546093.982 7 118480572.43307  92322519.39207  22546091.978 7  22546093.379 7
        45.000          47.500
  22078203.287 7 116021798.71607  90406594.62008  22078204.257 8  22078202.424 8
        46.500          50.250
  21967321.448 8 115439116.30008  89952574.79106  21967318.530 6  21967321.091 6
        48.000          41.750
 20  9  1  0  7  0.0000000  0 10G24G10G20G11G01G21G32G12G25G31
  24253885.587 6 127455086.42706  99315675.98806  24253886.856 6  24253885.064 6
        38.500          36.500
  20524620.007 8 107857643.00308  84044931.22908  20524619.795 8  20524619.717 8
        52.000          50.500
  22255239.548 7 116952101.13807  91131513.45306  22255237.780 6  22255238.319 6
        46.000          36.000
  24528286.050 6 128897025.21106 100439210.80203  24528283.999 3  24528285.509 3
        36.250          18.000
  24185208.500 6 127094131.25406  99034402.80904  24185209.405 4  24185208.299 4
        39.000          25.000
  23033486.541 7 121041805.80907  94318283.92905  23033484.413 5  23033485.365 5
        46.000          35.500
  20680051.960 8 108674477.56508  84681426.58708  20680051.905 8  20680051.849 8
        52.250          49.500
  22544378.296 7 118471558.16307  92315495.29607  22544376.664 7  22544377.679 7
        45.000          47.250
  22066122.778 7 115958317.05407  90357128.41808  22066124.088 8  22066121.924 8
        46.250          50.000
  21950531.360 8 115350886.08608  89883824.00407  21950529.130 7  21950531.021 7
        48.250          42.000
 20  9  1  0  7 30.0000000  0 10G24G10G20G11G01G21G32G12G25G31
  24274229.991 6 127561997.47406  99398983.30706  24274231.133 6  24274229.468 6
        38.750          36.500
  20531300.746 8 107892750.25908  84072287.52808  20531300.551 8  20531300.456 8
        51.750          50.500
  22273815.928 7 117049719.29007  91207579.50706  22273814.291 6  22273814.703 6
        45.500          36.250
  24534093.569 5 128927544.58105 100462992.09602  24534091.684 2  24534092.975 2
        35.000          16.750
  24175552.551 6 127043393.00606  98994866.53004  24175554.349 4  24175552.359 4
        38.250          24.500
  23043025.684 7 121091933.04507  94357344.10106  23043023.824 6  23043024.535 6
        46.250          36.250
  20675375.601 8 108649902.54308  84662277.21808  20675375.482 8  20675375.490 8
        51.750          50.000
  22542779.454 7 118463155.84307  92308948.04607  22542777.612 7  22542778.833 7
        44.750          47.250
  22054132.178 7 115895305.14907  90308028.25508  22054132.909 8  22054131.338 8
        45.750          50.000
  21933809.519 8 115263011.65008  89815350.44707  21933806.925 7  21933809.180 7
        48.250          42.000
 20  9  1  0  8  0.0000000  0 10G24G10G20G11G01G21G32G12G25G31
  24294583.990 6 127668957.55106  99482328.80906  24294585.176 6  24294583.440 6
        38.250          36.250
  20538079.190 8 107928370.91808  84100043.87908  20538079.012 8  20538078.900 8
        52.000          50.250
  22292446.454 7 117147623.45507  91283868.43505  22292445.002 5  22292445.220 5
        44.750          35.750
  24539988.610 5 128958525.02905 100487132.67302  24539986.701 2  24539988.016 2
        35.250          13.750
  24165997.055 6 126993178.78906  98955738.57504  24165998.943 4  24165996.881 4
        40.000          25.000
  23052628.942 7 121142396.83207  94396666.50605  23052626.736 5  23052627.816 5
        45.500          35.500
  20670739.883 8 108625541.64008  84643294.69508  20670739.871 8  20670739.772 8
        52.000          49.750
  22541296.881 7 118455366.03407  92302878.07407  22541295.171 7  22541296.255 7
        44.750          47.250
  22042231.346 7 115832765.83207  90259296.34908  22042232.240 8  22042230.506 8
        46.000          49.750
  21917155.609 8 115175494.65008  89747155.41007  21917153.177 7  21917155.270 7
        48.500          42.250
 20  9  1  0  8 30.0000000  0 10G24G10G20G11G01G21G32G12G25G31
  24314946.461 6 127775965.08106  99565711.29506  24314947.550 6  24314945.961 6
        37.000          36.000
  20544955.195 8 107964504.76808  84128200.12008  20544955.183 8  20544954.891 8
        51.750          50.500
  22311131.720 7 117245811.50707  91360378.56806  22311129.158 6  22311130.500 6
        45.000          36.000
  24545971.799 6 128989964.81606 100511631.20202  24545969.280 2  24545971.115 2
        36.000          15.500
  24156542.142 6 126943490.11906  98917020.14604  24156542.901 4  24156541.950 4
        38.000          24.500
  23062295.401 7 121193195.13507  94436249.57905  23062292.609 5  23062294.266 5
        45.500          35.250
  20666144.907 8 108601395.13208  84624479.23208  20666144.913 8  20666144.796 8
        52.250          50.000
  22539931.677 7 118448189.62807  92297286.07707  22539929.314 7  22539931.065 7
        44.500          47.000
  22030421.379 7 115770701.92607  90210934.88908  22030421.701 8  22030420.552 8
        45.250          49.750
  21900569.893 8 115088336.54308  89679240.01607  21900567.124 7  21900569.572 7
        49.250          42.500
 20  9  1  0  9  0.0000000  0 10G24G10G20G11G01G21G32G12G25G31
  24335317.927 6 127883018.05506  99649129.20206  24335319.194 6  24335317.516 6
        38.000          36.250
  20551928.944 8 108001151.60508  84156756.09008  20551928.853 8  20551928.640 8
        51.250          50.500
  22329869.042 7 117344281.83107  91437108.65605  22329867.188 5  22329867.799 5
        45.750          35.250
  24552041.756 5 129021861.49805 100536485.73602  24552039.123 2  24552041.086 2
        35.500          16.500
  24147186.872 6 126894328.56106  98878712.45304  24147188.155 4  24147186.685 4
        39.250          25.750
  23072024.881 7 121244325.53707  94476091.43505  23072022.408 5  23072023.750 5
        46.000          35.000
  20661591.031 8 108577463.33608  84605831.07708  20661590.856 8  20661590.911 8
        51.750          49.750
  22538683.052 7 118441628.15107  92292173.24507  22538680.890 7  22538682.418 7
        44.250          47.250
  22018701.207 7 115709116.21807  90162946.05308  22018701.945 8  22018700.367 8
        46.000          49.750
  21884052.949 8 115001538.92508  89611605.52707  21884050.198 7  21884052.645 7
        48.500          42.500
 20  9  1  0  9 30.0000000  0 10G24G10G20G11G01G21G32G12G25G31
  24355697.985 6 127990113.61306  99732580.29806  24355698.743 6  24355697.628 6
        38.750          36.000
  20559000.210 8 108038311.17208  84185711.59008  20559000.160 8  20558999.902 8
        51.750          50.500
  22348661.022 7 117443032.17507  91514056.95205  22348658.520 5  22348659.802 5
        45.750          35.250
  24558197.773 5 129054213.24105 100561694.91702  24558195.604 2  24558197.080 2
        35.250          15.750
  24137932.199 6 126845695.66306  98840816.72804  24137933.815 4  24137931.989 4
        40.500          26.250
  23081817.926 7 121295786.01607  94516190.49705  23081814.864 5  23081816.800 5
        45.250          34.750
  20657077.854 8 108553746.53008  84587350.45208  20657077.750 8  20657077.725 8
        51.750          50.000
  22537551.434 7 118435681.97907  92287539.87407  22537549.337 7  22537550.795 7
        44.750          47.250
  22007073.982 7 115648011.51107  90115332.01608  22007074.108 8  22007073.124 8
        45.250          50.000
  21867604.720 8 114915103.48808  89544253.26307  21867602.081 7  21867604.412 7
        48.250          42.500
 20  9  1  0 10  0.0000000  0 10G24G10G20G11G01G21G32G12G25G31
  24376085.172 6 128097250.76506  99816063.81306  24376086.601 6  24376084.815 6
        38.000          36.000
  20566168.808 8 108075983.20408  84215066.41308  20566169.043 8  20566168.491 8
        50.750          50.250
  22367505.384 7 117542060.56207  91591221.91205  22367502.908 5  22367504.137 5
        45.000          34.500
  24564439.545 5 129087017.71805 100587256.81102  24564438.454 2  24564438.915 2
        34.250          12.250
  24128778.425 6 126797593.02206  98803334.19704  24128780.475 4  24128778.197 4
        39.000          26.250
  23091672.660 7 121347574.10507  94556544.84005  23091669.560 5  23091671.529 5
        45.500          34.500
  20652605.515 8 108530245.03308  84569037.60108  20652605.627 8  20652605.377 8
        51.250          49.750
  22536537.142 7 118430351.81707  92283386.51407  22536535.191 7  22536536.490 7
        44.250          47.250
  21995538.023 7 115587390.55607  90068094.93808  21995538.449 8  21995537.152 8
        45.500          50.000
  21851225.953 7 114829031.72707  89477184.40107  21851223.310 7  21851225.663 7
        47.750          42.750
 20  9  1  0 10 30.0000000  0 10G24G10G20G11G01G21G32G12G25G31
  24396480.077 6 128204427.88606  99899578.47405  24396481.372 5  24396479.751 5
        36.500          34.500
  20573435.264 8 108114167.41808  84244820.33708  20573435.309 8  20573434.951 8
        51.500          50.000
  22386402.882 7 117641364.83507  91668601.83605  22386400.486 5  22386401.653 5
        45.750          35.250
  24570768.659 5 129120272.69305 100613169.74902  24570766.560 2  24570767.975 2
        35.750          13.000
  24119725.646 6 126750022.13906  98766265.99204  24119726.638 4  24119725.445 4
        38.750          24.000
  23101589.723 7 121399687.59907  94597152.73905  23101587.073 5  23101588.579 5
        46.000          35.250
  20648174.457 8 108506959.12208  84550892.73308  20648174.522 8  20648174.319 8
        51.750          49.750
  22535640.601 7 118425638.16907  92279713.55307  22535637.858 7  22535639.944 7
        44.500          46.750
  21984094.483 7 115527256.08607  90021236.93608  21984095.540 8  21984093.589 8
        45.500          50.250
  21834916.475 8 114743325.13408  89410400.07407  21834913.876 7  21834916.167 7
        48.250          42.500
 20  9  1  0 11  0.0000000  0 10G24G10G20G11G01G21G32G12G25G31
  24416882.182 6 128311641.92206  99983121.87005  24416883.937 5  24416881.887 5
        36.500          34.500
  20580798.681 8 108152863.53308  84274973.14708  20580798.806 8  20580798.368 8
        51.500          50.250
  22405351.769 7 117740942.78507  91746195.00605  22405349.971 5  22405350.540 5
        45.500          35.500
  24577182.149 5 129153976.24105 100639432.29002  24577180.312 2  24577181.550 2
        35.750          14.250
  24110775.234 6 126702984.38206  98729613.18503  24110775.554 3  24110775.042 3
        38.500          23.750
  23111568.228 7 121452124.53907  94638012.66505  23111566.389 5  23111567.084 5
        46.000          35.500
  20643784.440 8 108483889.10108  84532916.08508  20643784.359 8  20643784.306 8
        52.000          50.000
  22534860.574 7 118421542.01707  92276521.75207  22534858.092 7  22534859.917 7
        45.250          47.250
  21972744.223 7 115467610.86107  89974760.15908  21972745.506 8  21972743.343 8
        46.000          50.500
  21818676.741 8 114657985.41308  89343901.61307  21818674.271 7  21818676.446 7
        48.250          42.500
 20  9  1  0 11 30.0000000  0 10G24G10G20G11G01G21G32G12G25G31
  24437291.365 6 128418891.65306 100066693.09105  24437292.731 5  24437291.084 5
        37.750          35.250
  20588259.601 8 108192071.23208  84305524.59508  20588259.615 8  20588259.293 8
        51.500          50.250
  22424352.638 7 117840792.85207  91824000.22006  22424351.156 6  22424351.418 6
        45.500          36.250
  24583680.388 6 129188126.11906 100666042.51502  24583678.165 2  24583679.749 2
        37.000          13.750
  24101925.675 6 126656481.28206  98693377.00704  24101926.889 4  24101925.456 4
        37.750          24.750
  23121607.685 7 121504882.45807  94679122.70905  23121605.548 5  23121606.541 5
        46.500          35.500
  20639435.366 8 108461035.29508  84515107.91008  20639435.491 8  20639435.241 8
        51.250          50.000
  22534198.896 7 118418064.01507  92273811.63107  22534196.153 7  22534198.239 7
        44.750          47.000
  21961488.109 7 115408457.59807  89928666.74008  21961489.127 8  21961487.224 8
        46.500          50.750
  21802507.544 8 114573013.93108  89277690.08707  21802504.397 7  21802507.245 7
        48.000          42.250
 20  9  1  0 12  0.0000000  0 10G24G10G20G11G01G21G32G12G25G31
  24457707.095 6 128526174.94706 100150290.46206  24457707.861 6  24457706.782 6
        38.250          36.250
  20595817.869 8 108231790.14408  84336474.38908  20595817.694 8  20595817.561 8
        52.000          50.250
  22443404.681 7 117940912.57407  91902015.55205  22443402.915 5  22443403.461 5
        44.750          35.000
  24590263.634 5 129222720.25105 100692998.99402  24590261.511 2  24590262.955 2
        35.750          15.500
  24093178.595 6 126610514.20706  98657558.54604  24093179.823 4  24093178.336 4
        38.000          24.750
  23131707.796 7 121557959.22707  94720481.20205  23131705.852 5  23131706.656 5
        44.750          34.750
  20635127.532 8 108438398.00308  84497468.45408  20635127.767 8  20635127.421 8
        51.750          50.000
  22533654.920 7 118415204.73607  92271583.63207  22533652.086 7  22533654.277 7
        44.250          46.750
  21950325.602 7 115349798.99707  89882958.77408  21950326.754 8  21950324.704 8
        45.500          51.000
  21786408.001 8 114488411.99208  89211766.50207  21786405.031 7  21786407.702 7
        48.500          42.750
 20  9  1  0 12 30.0000000  0 10G24G10G20G11G01G21G32G12G25G31
  24478128.039 6 128633489.61206 100233912.29706  24478128.889 6  24478127.731 6
        38.500          36.000
  20603473.322 8 108272019.95608  84367822.29008  20603473.112 8  20603473.018 8
        51.500          50.250
  22462507.964 7 118041299.93207  91980239.43605  22462505.767 5  22462506.726 5
        45.750          35.250
  24596930.534 5 129257756.26805 100720299.74202  24596928.495 2  24596929.850 2
        34.500          15.000
  24084533.375 6 126565084.62506  98622158.91404  24084535.783 4  24084533.080 4
        37.500          27.000
  23141868.683 7 121611352.68907  94762086.45905  23141866.085 5  23141867.534 5
        43.750          33.250
  20630861.226 8 108415977.61208  84479998.00708  20630860.998 8  20630861.115 8
        51.500          49.750
  22533228.383 7 118412964.80107  92269838.23507  22533226.048 7  22533227.744 7
        44.250          47.000
  21939257.759 7 115291637.75607  89837638.35508  21939259.126 8  21939256.883 8
        46.500          51.000
  21770379.554 8 114404181.48808  89146132.35107  21770376.562 7  21770379.259 7
        48.000          43.000
 20  9  1  0 13  0.0000000  0 10G24G10G20G11G01G21G32G12G25G31
  24498555.445 6 128740833.88106 100317557.18905  24498556.057 5  24498555.132 5
        38.250          35.750
  20611225.861 8 108312760.27408  84399567.98908  20611225.649 8  20611225.562 8
        51.500          50.000
  22481661.538 7 118141953.01107  92058670.36705  22481659.489 5  22481660.286 5
        44.250          33.750
  24603681.069 5 129293232.11605 100747943.23002  24603679.420 2  24603680.403 2
        34.250          14.000
  24075990.874 6 126520193.91306  98587179.18104  24075993.133 4  24075990.602 4
        38.000          25.500
  23152088.384 7 121665060.37807  94803936.58805  23152085.290 5  23152087.235 5
        44.250          33.250
  20626636.062 8 108393774.41608  84462696.81308  20626635.981 8  20626635.955 8
        52.250          50.000
  22532920.258 7 118411344.89507  92268575.98407  22532917.927 7  22532919.641 7
        44.250          47.000
  21928285.453 7 115233976.52007  89792707.55408  21928286.377 8  21928284.577 8
        46.500          51.000
  21754421.894 8 114320323.58008  89080788.55307  21754418.996 7  21754421.604 7
        48.250          42.750
 20  9  1  0 13 30.0000000  0 10G24G10G20G11G01G21G32G12G25G31
  24518987.164 6 128848205.58806 100401223.46905  24518987.862 5  24518986.860 5
        37.250          34.250
  20619075.545 8 108354010.67608  84431711.15608  20619075.484 8  20619075.241 8
        51.500          50.250
  22500865.392 7 118242869.58707  92137306.63705  22500862.943 5  22500864.109 5
        45.250          34.750
  24610515.708 5 129329145.31705 100775927.56302  24610513.267 2  24610515.015 2
        35.750          15.750
  24067551.838 6 126475843.45406  98552620.40903  24067553.048 3  24067551.579 3
        37.250          23.500
  23162368.086 7 121719079.95407  94846029.74105  23162364.875 5  23162366.937 5
        45.250          33.750
  20622452.238 8 108371788.75108  84445565.12808  20622452.264 8  20622452.131 8
        52.000          50.000
  22532729.752 7 118410345.08807  92267796.91907  22532727.167 7  22532729.158 7
        45.000          47.000
  21917408.744 7 115176817.92707  89748168.41908  21917409.348 8  21917407.868 8
        46.250          51.250
  21738535.366 8 114236839.80908  89015736.28307  21738532.399 7  21738535.076 7
        48.000          42.750
 20  9  1  0 14  0.0000000  0 11G24G10G22G20G11G01G21G32G12G25G31
  24539424.327 6 128955603.71906 100484910.34005  24539425.104 5  24539424.064 5
        36.000          33.500
  20627022.486 8 108395770.76108  84464251.47408  20627022.474 8  20627022.173 8
        51.500          50.000
  25582776.791 5
        31.500
  22520118.751 7 118344047.77607  92216146.75005  22520117.079 5  22520117.468 5
        45.250          35.000
  24617432.880 6 129365493.66706 100804250.99502  24617430.567 2  24617432.210 2
        37.500          17.000
  24059215.071 6 126432034.58806  98518483.60903  24059215.596 3  24059214.785 3
        38.000          22.750
  23172706.487 7 121773409.34107  94888364.31405  23172703.445 5  23172705.356 5
        45.250          34.000
  20618310.034 8 108350020.90008  84428603.16308  20618309.767 8  20618309.927 8
        52.000          50.000
  22532657.612 7 118409966.72307  92267502.10307  22532654.937 7  22532657.027 7
        44.500          46.750
  21906627.438 7 115120164.66807  89704023.05108  21906628.319 8  21906626.567 8
        46.000          51.250
  21722720.479 8 114153731.68108  88950976.71607  21722717.705 7  21722720.207 7
        49.000          43.500
 20  9  1  0 14 30.0000000  0 11G24G10G22G20G11G01G21G32G12G25G31
  24559866.077 6 129063026.27206 100568616.23605  24559866.787 5  24559865.876 5
        36.000          33.000
  20635065.820 8 108438040.10208  84497188.61508  20635066.222 8  20635065.499 8
        51.500          49.750
  25563661.784 5 134337948.40615
        33.000
  22539421.877 7 118445485.42007  92295189.04005  22539420.072 5  22539420.608 5
        45.250          34.750
  24624432.552 5 129402275.00705 100832911.75002  24624429.985 2  24624431.868 2
        34.500          14.250
  24050981.421 6 126388768.60006  98484769.86503  24050981.497 3  24050981.149 3
        38.750          22.250
  23183103.968 7 121828045.99407  94930938.31105  23183100.415 5  23183102.837 5
        44.750          33.250
  20614209.413 8 108328471.20408  84411811.17608  20614209.204 8  20614209.306 8
        52.000          49.750
  22532703.607 7 118410209.79007  92267691.51607  22532701.308 7  22532703.040 7
        45.750          46.750
  21895943.515 7 115064019.31707  89660273.44408  21895944.222 8  21895942.661 8
        46.000          51.000
  21706977.039 8 114071000.80408  88886511.12107  21706975.063 7  21706976.776 7
        48.000          43.250
 20  9  1  0 15  0.0000000  0 11G24G10G22G20G11G01G21G32G12G25G31
  24580312.501 6 129170470.68006 100652339.17205  24580312.798 5  24580312.327 5
        37.500          33.500
  20643206.306 8 108480818.25008  84530522.22608  20643206.694 8  20643205.980 8
        51.750          50.000
  25544555.860 5 134237546.33105 104600671.08712  25544552.543 2  25544555.503 2
        33.250          15.000
  22558773.728 7 118547180.32607  92374431.79205  22558771.824 5  22558772.459 5
        44.250          33.500
  24631512.657 5 129439487.27105 100861908.30502  24631511.067 2  24631512.130 2
        34.000          12.000
  24042852.332 6 126346046.84106  98451480.18504  24042852.020 4  24042852.051 4
        40.750          25.750
  23193559.024 7 121882987.73807  94973750.02505  23193556.464 5  23193557.898 5
        44.250          33.250
  20610149.916 8 108307140.01208  84395189.44708  20610149.936 8  20610149.809 8
        52.000          50.000
  22532868.278 7 118411074.78807  92268365.55107  22532865.757 7  22532867.737 7
        44.750          46.750
  21885356.454 7 115008384.46407  89616921.64008  21885357.129 8  21885355.600 8
        46.000          51.250
  21691306.035 8 113988648.48608  88822340.49507  21691303.564 7  21691305.767 7
        48.750          43.250
 20  9  1  0 15 30.0000000  0 11G24G10G22G20G11G01G21G32G12G25G31
  24600761.968 6 129277935.57506 100736078.06905  24600762.861 5  24600761.749 5
        37.500          34.000
  20651443.564 8 108524104.71608  84564251.93008  20651443.799 8  20651443.229 8
        51.750          50.250
  25525459.396 5 134137194.45005 104522474.84702  25525455.705 2  25525458.686 2
        35.750          15.750
  22578174.276 7 118649130.48607  92453873.44105  22578172.294 5  22578173.007 5
        44.500          33.750
  24638675.871 5 129477127.92705 100891238.67002  24638673.762 2  24638675.299 2
        34.000          14.000
  24034826.214 6 126303870.60606  98418615.59204  24034827.930 4  24034825.942 4
        41.250          28.000
  23204071.441 7 121938232.44907  95016797.82505  23204069.293 5  23204070.297 5
        45.250          34.000
  20606132.595 8 108286027.70708  84378738.29708  20606132.581 8  20606132.502 8
        52.500          50.250
  22533151.139 7 118412562.00507  92269524.43907  22533148.730 7  22533150.607 7
        44.750          46.500
  21874867.263 7 114953262.71507  89573969.65108  21874867.753 8  21874866.392 8
        46.500          51.250
  21675707.287 8 113906676.16408  88758465.97307  21675704.528 7  21675707.024 7
        49.250          43.500
 20  9  1  0 16  0.0000000  0 11G24G10G22G20G11G01G21G32G12G25G31
  24621215.698 6 129385419.06606 100819831.45605  24621216.402 5  24621215.426 5
        36.750          33.750
  20659777.476 8 108567899.01108  84598377.34508  20659777.638 8  20659777.146 8
        50.750          50.000
  25506373.524 5 134036894.44005 104444319.01102  25506368.924 2  25506372.693 2
        34.500          16.500
  22597623.007 7 118751333.62307  92533512.21005  22597620.936 5  22597621.742 5
        44.250          33.750
  24645920.314 5 129515194.61905 100920901.01702  24645917.754 2  24645919.715 2
        34.000          12.750
  24026904.185 6 126262241.10406  98386177.04204  24026906.603 4  24026903.922 4
        39.000          26.250
  23214641.480 7 121993777.64707  95060079.76905  23214639.623 5  23214640.345 5
        44.750          34.250
  20602156.646 8 108265134.63408  84362457.98208  20602156.795 8  20602156.553 8
        52.000          50.000
  22533552.941 7 118414672.52207  92271169.00207  22533550.215 7  22533552.396 7
        44.750          46.500
  21864476.049 7 114898656.60307  89531419.45108  21864476.395 8  21864475.191 8
        46.250          51.000
  21660181.056 8 113825085.16008  88694888.57507  21660177.977 7  21660180.793 7
        48.500          43.250
 20  9  1  0 16 30.0000000  0 11G24G10G22G20G11G01G21G32G12G25G31
  24641672.127 5 129492919.01005 100903597.67405  24641672.944 5  24641671.877 5
        35.750          33.750
  20668207.511 8 108612200.61808  84632898.06908  20668207.939 8  20668207.167 8
        51.750          50.000
  25487296.626 5 133936648.26705 104366205.13202  25487292.182 2  25487295.714 2
        34.750          16.000
  22617119.352 7 118853787.83307  92613346.63305  22617117.291 5  22617118.074 5
        46.000          34.000
  24653244.479 6 129553684.98706 100950893.53302  24653242.089 2  24653243.831 2
        36.750          15.250
  24019086.343 6 126221159.59106  98354165.50404  24019088.289 4  24019086.057 4
        39.000          25.750
  23225268.338 7 122049621.06207  95103594.09405  23225265.428 5  23225267.216 5
        46.000          33.750
  20598222.617 8 108244461.10908  84346348.74208  20598222.858 8  20598222.524 8
        52.500          50.250
  22534073.363 7 118417406.35607  92273299.27307  22534070.144 7  22534072.822 7
        45.500          46.500
  21854183.599 7 114844568.70307  89489273.06208  21854184.039 8  21854182.745 8
        46.750          51.250
  21644727.660 8 113743877.17908  88631609.63907  21644724.796 7  21644727.388 7
        48.250          43.250
 20  9  1  0 17  0.0000000  0 11G24G10G22G20G11G01G21G32G12G25G31
  24662131.876 5 129600433.56805 100987375.26105  24662132.522 5  24662131.671 5
        35.750          34.000
  20676734.253 8 108657008.99808  84667813.68008  20676734.719 8  20676733.909 8
        52.000          50.000
  25468231.321 5 133836457.99005 104288134.84102  25468227.191 2  25468230.360 2
        33.000          15.500
  22636663.327 7 118956490.91207  92693374.96205  22636661.305 5  22636662.067 5
        44.250          33.500
  24660649.157 6 129592596.74406 100981214.35702  24660646.761 2  24660648.496 2
        36.000          13.750
  24011373.211 6 126180627.28306  98322581.92504  24011374.547 4  24011372.925 4
        39.000          24.750
  23235951.048 7 122105760.28107  95147338.91805  23235947.759 5  23235949.935 5
        45.250          33.250
  20594330.445 8 108224007.50808  84330410.87408  20594330.668 8  20594330.356 8
        52.000          50.000
  22534711.621 7 118420763.47307  92275915.22107  22534709.161 7  22534711.076 7
        45.250          46.750
  21843989.748 7 114791001.49307  89447532.39808  21843990.663 8  21843988.903 8
        46.750          51.500
  21629347.536 8 113663052.90208  88568629.70607  21629344.874 7  21629347.259 7
        48.250          43.250
 20  9  1  0 17 30.0000000  0 11G24G10G22G20G11G01G21G32G12G25G31
  24682593.001 5 129707960.92705 101071162.82905  24682594.108 5  24682592.809 5
        35.500          33.500
  20685357.244 8 108702323.63608  84703123.77908  20685357.653 8  20685356.905 8
        52.000          50.250
  25449176.040 5 133736325.64805 104210109.71302  25449172.556 2  25449175.057 2
        34.250          16.250
  22656253.921 7 119059440.74707  92773595.59505  22656251.568 5  22656252.674 5
        45.000          33.500
  24668133.934 5 129631927.83905 101011861.91802  24668131.099 2  24668133.322 2
        35.500          15.000
  24003765.185 6 126140645.42606  98291427.25504  24003766.033 4  24003764.913 4
        40.500          24.750
  23246689.952 7 122162192.97207  95191312.42305  23246686.750 5  23246688.844 5
        45.000          33.000
  20590480.101 8 108203774.17008  84314644.63708  20590480.454 8  20590480.012 8
        52.250          50.250
  22535469.453 7 118424744.85607  92279017.60507  22535466.896 7  22535468.908 7
        45.250          47.000
  21833895.737 7 114737957.51307  89406199.44708  21833896.856 8  21833894.897 8
        46.750          52.000
  21614040.403 8 113582614.13008  88505950.16907  21614037.575 7  21614040.108 7
        48.500          43.500
 20  9  1  0 18  0.0000000  0 11G24G10G22G20G11G01G21G32G12G25G31
  24703057.244 5 129815499.73105 101154959.31405  24703058.189 5  24703057.084 5
        35.750          32.750
  20694076.873 8 108748143.92608  84738827.89308  20694076.893 8  20694076.534 8
        51.750          49.750
  25430133.171 6 133636253.13906 104132131.17903  25430129.629 3  25430132.139 3
        36.250          18.500
  22675891.396 7 119162635.28707  92854006.88905  22675888.918 5  22675890.176 5
        43.500          32.500
  24675697.484 5 129671675.48805 101042834.12402  24675694.812 2  24675696.823 2
        33.250          14.250
  23996261.900 6 126101215.16806  98260702.36303  23996261.782 3  23996261.610 3
        37.750          23.000
  23257484.297 7 122218916.53607  95235512.58705  23257481.452 5  23257483.175 5
        44.750          33.250
  20586671.788 8 108183761.47908  84299050.33408  20586672.214 8  20586671.690 8
        51.750          49.750
  22536346.101 7 118429350.57007  92282606.48607  22536343.571 7  22536345.569 7
        45.500          47.000
  21823901.748 7 114685439.25107  89365276.15208  21823903.446 8  21823900.917 8
        46.500          51.750
  21598806.986 8 113502562.54408  88443572.34407  21598804.457 7  21598806.700 7
        48.500          43.750
 20  9  1  0 18 30.0000000  0 11G24G10G22G20G11G01G21G32G12G25G31
  24723522.698 5 129923048.14705 101238763.29105  24723523.970 5  24723522.515 5
        35.750          33.000
  20702892.097 8 108794469.27108  84774925.55608  20702892.290 8  20702891.762 8
        51.750          50.000
  25411101.672 6 133536242.34106 104054200.71603  25411098.372 3  25411100.559 3
        37.500          19.750
  22695574.549 7 119266072.62107  92934607.37105  22695572.652 5  22695573.311 5
        44.750          33.250
  24683339.914 5 129711837.38905 101074129.07902  24683337.312 2  24683339.190 2
        33.500          14.250
  23988863.756 6 126062337.62006  98230408.18504  23988864.297 4  23988863.452 4
        39.500          25.000
  23268333.139 7 122275928.98307  95279937.83705  23268331.062 5  23268332.026 5
        45.250          33.500
  20582905.608 8 108163969.77708  84283628.23108  20582905.923 8  20582905.488 8
        52.000          50.000
  22537341.344 7 118434580.42407  92286681.71107  22537339.294 7  22537340.817 7
        45.750          47.250
  21814008.656 7 114633449.17207  89324764.42108  21814009.632 8  21814007.811 8
        46.500          51.500
  21583647.383 8 113422899.05708  88381496.93107  21583645.079 7  21583647.097 7
        48.750          43.500
 20  9  1  0 19  0.0000000  0 11G24G10G22G20G11G01G21G32G12G25G31
  24743990.365 6 130030604.23306 101322573.24105  24743991.731 5  24743990.191 5
        37.000          32.750
  20711803.619 8 108841299.07508  84811416.30508  20711803.652 8  20711803.280 8
        51.500          49.750
  25392082.753 6 133436295.23706 103976319.89103  25392079.568 3  25392081.609 3
        36.000          19.500
  22715303.788 7 119369750.02407  93015394.92705  22715302.072 5  22715302.536 5
        44.250          33.000
  24691060.149 5 129752411.25605 101105745.08702  24691058.024 2  24691059.434 2
        34.000          12.250
  23981571.669 6 126024013.92506  98200545.60204  23981572.163 4  23981571.419 4
        41.000          27.000
  23279236.998 7 122333227.79607  95324586.24105  23279234.081 5  23279235.885 5
        44.000          32.750
  20579181.763 8 108144399.45508  84268378.63508  20579181.737 8  20579181.634 8
        51.250          50.000
  22538455.022 7 118440434.76107  92291243.54207  22538452.938 7  22538454.477 7
        45.500          47.000
  21804216.441 7 114581989.70907  89284666.15708  21804216.730 8  21804215.605 8
        46.750          51.500
  21568562.148 8 113343625.23008  88319725.13807  21568559.323 7  21568561.858 7
        48.750          43.500
 20  9  1  0 19 30.0000000  0 11G24G10G22G20G11G01G21G32G12G25G31
  24764457.917 6 130138166.03806 101406387.66405  24764459.546 5  24764457.676 5
        37.750          32.750
  20720810.887 8 108888632.73608  84848299.66508  20720810.971 8  20720810.552 8
        52.000          50.000
  25373075.570 5 133336413.83905 103898490.26803  25373072.574 3  25373074.394 3
        35.750          20.000
  22735078.308 7 119473665.59107  93096368.05805  22735076.817 5  22735077.065 5
        45.000          33.750
  24698860.116 5 129793394.73905 101137680.31002  24698856.941 2  24698859.365 2
        32.750          13.500
  23974383.875 6 125986245.20806  98171115.45904  23974385.456 4  23974383.621 4
        40.000          26.250
  23290194.355 7 122390810.49407  95369455.84505  23290192.029 5  23290193.220 5
        44.250          32.250
  20575499.964 8 108125050.86708  84253301.81708  20575499.785 8  20575499.826 8
        51.500          49.750
  22539688.824 7 118446914.68807  92296292.85607  22539685.903 7  22539688.310 7
        45.750          47.250
  21794525.603 7 114531063.29707  89244983.25908  21794525.624 8  21794524.772 8
        46.500          51.500
  21553551.164 8 113264742.21808  88258257.87107  21553548.265 7  21553550.860 7
        49.000          44.000
 20  9  1  0 20  0.0000000  0 11G24G10G22G20G11G01G21G32G12G25G31
  24784927.524 6 130245731.98306 101490205.31205  24784928.541 5  24784927.198 5
        36.500          32.000
  20729914.074 8 108936469.59708  84885575.13408  20729913.992 8  20729913.744 8
        52.000          49.500
  25354081.366 6 133236600.13106 103820713.42503  25354078.526 3  25354080.141 3
        37.250          21.000
  22754897.206 7 119577817.07907  93177525.02405  22754896.094 5  22754895.950 5
        43.500          32.250
  24706736.330 5 129834785.16805 101169932.55301  24706733.141 1  24706735.539 1
        33.250          11.250
  23967303.090 6 125949032.53106  98142118.58004  23967303.846 4  23967302.840 4
        40.250          26.250
  23301205.506 7 122448674.54407  95414544.68805  23301202.563 5  23301204.375 5
        45.250          32.250
  20571860.133 8 108105924.41408  84238398.08908  20571860.059 8  20571859.995 8
        51.750          49.750
  22541040.717 7 118454019.71407  92301829.24507  22541038.095 7  22541040.217 7
        45.500          47.000
  21784936.411 7 114480672.34207  89205717.59908  21784936.417 8  21784935.571 8
        46.000          51.000
  21538614.996 8 113186251.49708  88197096.32507  21538612.339 7  21538614.692 7
        49.750          44.500
 20  9  1  0 20 30.0000000  0 11G24G10G22G20G11G01G21G32G12G25G31
  24805396.431 6 130353300.35906 101574024.83005  24805397.934 5  24805396.078 5
        36.000          32.000
  20739112.720 8 108984808.96108  84923242.16308  20739112.705 8  20739112.390 8
        51.500          50.000
  25335100.674 6 133136856.00806 103742990.78503  25335097.606 3  25335099.422 3
        37.000          21.750
  22774761.717 7 119682202.61007  93258864.36805  22774759.449 5  22774760.474 5
        44.000          32.250
  24714689.991 5 129876580.42705 101202500.32801  24714686.364 1  24714689.178 1
        30.250           8.750
  23960327.969 6 125912376.96606  98113555.78604  23960328.379 4  23960327.719 4
        39.500          26.500
  23312270.027 7 122506817.76607  95459851.07305  23312266.587 5  23312268.892 5
        44.250          32.250
  20568262.862 8 108087020.47808  84223667.75408  20568262.755 8  20568262.710 8
        51.000          50.000
  22542511.483 7 118461749.90107  92307852.76807  22542509.201 7  22542510.974 7
        45.500          47.250
  21775449.470 7 114430819.22307  89166871.03208  21775449.695 8  21775448.616 8
        46.000          51.250
  21523753.287 8 113108154.07008  88136241.20307  21523751.232 7  21523752.997 7
        49.500          45.000
 20  9  1  0 21  0.0000000  0 11G24G10G22G20G11G01G21G32G12G25G31
  24825866.488 5 130460869.54005 101657844.98805  24825867.399 5  24825866.117 5
        34.750          31.500
  20748406.814 8 109033650.15008  84961300.22108  20748407.036 8  20748406.479 8
        51.000          49.750
  25316134.047 6 133037183.52306 103665323.93803  25316130.597 3  25316132.737 3
        36.500          20.250
  22794669.723 7 119786819.98007  93340384.35605  22794667.931 5  22794668.476 5
        44.000          33.000
  24722719.729 5 129918777.64105 101235381.24801  24722716.231 1  24722719.010 1
        31.750           8.000
  23953458.444 6 125876279.52406  98085427.92704  23953459.872 4  23953458.158 4
        40.500          28.000
  23323386.753 7 122565237.65007  95505373.03805  23323384.078 5  23323385.604 5
        44.250          32.750
  20564707.915 8 108068339.44708  84209111.11108  20564707.936 8  20564707.763 8
        51.500          50.000
  22544101.768 7 118470105.42007  92314363.57707  22544099.131 7  22544101.250 7
        44.500          47.000
  21766065.442 7 114381506.29707  89128445.39708  21766065.727 8  21766064.571 8
        45.750          51.250
  21508967.002 8 113030451.54108  88075693.80607  21508964.994 7  21508966.712 7
        48.750          44.500
 20  9  1  0 21 30.0000000  0 11G24G10G22G20G11G01G21G32G12G25G31
  24846336.387 5 130568437.25605 101741664.01905  24846336.600 5  24846336.016 5
        34.750          31.000
  20757796.491 8 109082992.48708  84999748.78508  20757796.647 8  20757796.156 8
        51.250          49.750
  25297181.695 6 132937584.58306 103587714.41003  25297176.807 3  25297180.372 3
        37.750          20.500
  22814621.424 7 119891666.99407  93422083.29005  22814619.452 5  22814620.181 5
        43.750          31.750
  24730825.854 5 129961374.36205 101268573.43801  24730822.103 1  24730825.054 1
        30.250           5.000
  23946695.602 6 125840741.23306  98057735.77604  23946697.071 4  23946695.321 4
        39.750          26.750
  23334556.092 7 122623931.75207  95551108.66605  23334554.138 5  23334554.952 5
        43.000          32.250
  20561195.414 8 108049881.67208  84194728.43508  20561195.351 8  20561195.254 8
        51.500          49.750
  22545810.802 7 118479086.57407  92321361.88207  22545809.089 7  22545810.270 7
        44.750          47.000
  21756784.740 7 114332735.95507  89090442.54908  21756784.848 8  21756783.882 8
        46.250          51.000
  21494255.943 8 112953144.90208  88015454.89907  21494253.459 7  21494255.630 7
        48.500          44.250
 20  9  1  0 22  0.0000000  0 11G24G10G22G20G11G01G21G32G12G25G31
  24866805.776 5 130676001.96405 101825480.67605  24866805.497 5  24866805.414 5
        34.500          31.000
  20767281.284 8 109132835.23108  85038587.27608  20767281.491 8  20767280.954 8
        51.500          50.000
  25278242.710 6 132838061.06506 103510163.62603  25278238.323 3  25278241.387 3
        39.250          22.750
  22834616.214 7 119996741.23607  93503959.30305  22834614.133 5  22834614.945 5
        44.250          33.000
  24739005.428 5 130004368.32605 101302075.20301  24739003.482 1  24739004.610 1
        31.500           9.250
  23940039.562 6 125805763.07606  98030480.07804  23940041.361 4  23940039.276 4
        40.500          27.500
  23345777.011 7 122682897.62607  95597056.06405  23345774.364 5  23345775.862 5
        44.250          32.250
  20557725.736 8 108031647.56408  84180520.03708  20557725.488 8  20557725.584 8
        51.500          50.250
  22547639.061 7 118488693.50807  92328847.81907  22547636.279 7  22547638.507 7
        44.500          46.750
  21747607.733 7 114284510.48907  89052864.27908  21747607.987 8  21747606.888 8
        46.750          51.500
  21479620.490 8 112876235.72308  87955525.73307  21479618.151 7  21479620.177 7
        49.500          44.750
 20  9  1  0 22 30.0000000  0 11G24G10G22G20G11G01G21G32G12G25G31
  24887272.850 5 130783562.34105 101909293.97705  24887273.366 5  24887272.457 5
        35.500          31.000
  20776861.082 8 109183177.63308  85077815.11008  20776861.473 8  20776860.752 8
        51.500          49.750
  25259318.827 6 132738615.40006 103432673.50603  25259314.479 3  25259317.473 3
        39.000          22.750
  22854654.737 7 120102040.70707  93586010.79505  22854652.471 5  22854653.517 5
        42.750          31.750
  24747263.367 5 130047756.92905 101335884.45101  24747260.056 1  24747262.741 1
        31.750           7.250
  23933489.894 6 125771346.02406  98003661.61104  23933491.355 4  23933489.595 4
        40.750          26.250
  23357049.372 7 122742133.18107  95643213.61205  23357046.779 5  23357048.246 5
        44.250          32.500
  20554298.459 8 108013637.52508  84166486.24008  20554298.387 8  20554298.330 8
        52.000          50.000
  22549586.070 7 118498925.85807  92336821.09807  22549583.255 7  22549585.516 7
        44.750          46.750
  21738534.889 7 114236832.20107  89015712.38908  21738535.477 8  21738534.018 8
        47.000          51.750
  21465061.135 8 112799725.20408  87895907.22007  21465058.472 7  21465060.822 7
        49.000          44.250
 20  9  1  0 23  0.0000000  0 11G24G10G22G20G11G01G21G32G12G25G31
  24907739.417 5 130891116.08605 101993102.09605  24907740.622 5  24907739.015 5
        34.750          30.750
  20786535.669 8 109234018.93008  85117431.69508  20786536.043 8  20786535.334 8
        51.500          49.750
  25240410.541 6 132639249.44306 103355245.51303  25240405.807 3  25240409.155 3
        38.250          22.250
  22874734.548 7 120207563.15507  93668236.03805  22874732.789 5  22874733.301 5
        43.000          31.750
  24755594.285 5 130091537.62505 101369999.35201  24755591.431 1  24755593.704 1
        34.250          10.000
  23927047.360 6 125737490.98506  97977281.08604  23927048.614 4  23927047.039 4
        40.000          26.250
  23368371.664 7 122801635.79207  95689579.26005  23368369.715 5  23368370.529 5
        44.250          32.250
  20550913.879 8 107995851.96208  84152627.36508  20550913.803 8  20550913.754 8
        52.000          50.000
  22551652.199 7 118509784.18707  92345282.14007  22551649.623 7  22551651.614 7
        44.500          46.500
  21729566.584 7 114189703.38007  88978988.65108  21729567.343 8  21729565.717 8
        47.250          52.250
  21450577.866 8 112723614.29708  87836600.06707  21450574.838 7  21450577.540 7
        49.000          44.500
 20  9  1  0 23 30.0000000  0 11G24G10G22G20G11G01G21G32G12G25G31
  24928205.171 6 130998661.68106 102076903.86605  24928205.879 5  24928204.782 5
        36.000          32.000
  20796305.465 8 109285358.35408  85157436.43208  20796305.402 8  20796305.135 8
        51.250          49.750
  25221517.282 6 132539965.15706 103277881.15003  25221512.674 3  25221515.865 3
        37.750          21.750
  22894857.157 7 120313306.53207  93750633.43905  22894854.912 5  22894855.946 5
        43.250          31.250
  24763999.882 5 130135708.12505 101404417.82901  24763996.995 1  24763999.198 1
        33.500          10.500
  23920712.317 6 125704198.96206  97951339.24204  23920712.960 4  23920712.009 4
        40.000          26.000
  23379745.260 7 122861402.86707  95736150.97705  23379743.376 5  23379744.134 5
        43.750          32.250
  20547572.109 8 107978291.30108  84138943.74108  20547572.164 8  20547571.984 8
        51.750          50.000
  22553837.490 7 118521268.12707  92354230.67607  22553834.525 7  22553836.896 7
